ll_uuid,geoid,jurisdiction,cbsa,pdc,owner,usecode,usedesc,struct,improvval,landval,parval,owntype,saddno,saddpref,saddsttyp,saddstsuf,sunit,scity,county,szip,lat,lon,ll_gisacre,ll_gissqft,ll_bldg_count,ll_bldg_footprint_sqft,acres,address,bld_coverage
6074393d-99cd-4ead-b936-398e5168f1c5,51173,Smyth County,Non-Metro,Mount Rogers,CHILHOWIE UNITED METHODIST CHURCH,NA,NA,NA,0,15000,15000,NA,NA,NA,NA,NA,NA,Chilhowie,smyth,24319,36.802262,-81.681091,0.42243000000000003,18401,0,NA,0.4227391530281667,CHILHOWIE SMYTH 24319,NA
836bbda8-e828-4a11-96a4-dbea3cb9c799,51173,Smyth County,Non-Metro,Mount Rogers,FIRST CHRISTIAN CHURCH,NA,NA,NA,0,3100,3100,NA,NA,NA,NA,NA,NA,Saltville,smyth,24370,36.891341,-81.773590,1.78155,77606,0,NA,1.782807550601821,SALTVILLE SMYTH 24370,NA
c1112779-e056-4d5c-959a-ee7a9c8667b1,51035,Carroll County,Non-Metro,Mount Rogers,FAIRVIEW PRESBYTERIAN CHURCH,76,NA,NA,0,12300,12300,NA,NA,NA,NA,NA,NA,NA,carroll,24343,36.755968,-80.704039,1.25397,54624,1,201,1.2549746136761937,CARROLL 24343,0.003679701230228471
d7751d9e-c8b0-4f65-b271-428700e38015,51025,Brunswick County,Non-Metro,Southside,LAWRENCEVILLE UNITED ME CHURCH TRUS,76,NA,NA,742200,40000,782200,NA,300,W,ST,NA,NA,LAWRENCEVILLE,brunswick,23868-1707,36.758898,-77.848653,0.81698,35588,2,7110,0.8163508367435944,300 W ST LAWRENCEVILLE BRUNSWICK 23868-1707,0.19978644486905697
4f0e6694-0165-45dd-9ca2-60aa8399148a,51550,Chesapeake City,"Virginia Beach-Norfolk-Newport News, VA-NC",Hampton Roads,LIVING WATERS CHRISTIAN FLWSP CH,7600,NA,NA,3183600,679500,3863100,NA,2700,NA,RD,NA,NA,CHESAPEAKE,chesapeake,23321-1516,36.833316,-76.432038,6.7934,295926,3,16775,6.796250183552396,2700 RD CHESAPEAKE CHESAPEAKE 23321-1516,0.05668646891452593
5de1e792-66bf-48d8-89fe-2c08aa3a8e5d,51117,Mecklenburg County,Non-Metro,Southside,MT ZION CHURCH,76,NA,NA,NA,14000,73800,NA,201,NA,STREET,NA,NA,Clarksville,mecklenburg,23927,36.624704,-78.553219,0.49008,21348,1,2179,0.48990625271547833,201 STREET CLARKSVILLE MECKLENBURG 23927,0.10207045156454937
7d718829-3fe3-4ac1-9824-b6c98bf84d04,51590,Danville City,"Danville, VA",West Piedmont,BIBLEWAY CATHEDRAL TRUSTEES,1091,Vac Res Lot Buildable - 1,NA,0,2100,2100,NA,NA,NA,NA,NA,NA,Danville,danville,24541,36.572601,-79.387900,0.1944,8468,0,NA,0.19445914178665474,DANVILLE DANVILLE 24541,NA
24490a9c-14ec-45d0-908c-b95ef6fa3c33,51077,Grayson County,Non-Metro,Mount Rogers,BRUSH CREEK BAPTIST CHURCH,NA,NA,NA,0,20000,20000,NA,NA,NA,NA,NA,NA,NA,grayson,24348,36.602750,-81.151859,0.49479,21554,0,NA,0.49519818504220947,GRAYSON 24348,NA
6b93b817-223b-402b-9f32-ee368dbadb4b,51760,Richmond City,"Richmond, VA",PlanRVA,UNION LEVEL BAPTIST CHURCH TR,406,B Paved Surface Parking,NA,11000,35000,46000,NA,1806,NA,NA,NA,NA,RICHMOND,richmond-city,23231,37.516988,-77.392489,0.23474,10226,0,NA,0.2346779700765345,1806 RICHMOND RICHMOND-CITY 23231,NA
07cd6c30-0d44-4c9b-9223-7310340f808e,51033,Caroline County,Non-Metro,George Washington,CALVARY CHRISTIAN CHURCH INC,76,NA,NA,87300,8000,95300,NA,NA,NA,NA,NA,NA,BOWLING GREEN,caroline,22427,38.051767,-77.346214,0.13924,6065,1,2210,0.1392076758149812,BOWLING GREEN CAROLINE 22427,0.36438582028029676
92875723-eda9-447b-9f70-13293476c10f,51840,Winchester City,"Winchester, VA-WV",Northern Shenandoah,PENTECOSTAL CHURCH NEW REBIRTH,NA,VACANT LAND,NA,5850,65000,70850,NA,2313,NA,RD,NA,NA,WINCHESTER,winchester,22601,39.157737,-78.177158,0.28613,12464,1,1049,0.28594408436604163,2313 RD WINCHESTER WINCHESTER 22601,0.08416238767650834
0375e73f-7a32-45b0-8c6c-91b497dc0e7e,51700,Newport News City,"Virginia Beach-Norfolk-Newport News, VA-NC",Hampton Roads,CALVARY CHAPEL NEWPORT NEWS,16,CHURCH/SYNAGOGUE/OTHER PLACES OF WORSHIP,NA,78700,38400,117100,NA,15541,NA,BLVD,NA,NA,NEWPORT NEWS,newport-news,23608-1507,37.158819,-76.558251,0.03717,1619,1,1571,0.03718160506061004,15541 BLVD NEWPORT NEWS NEWPORT-NEWS 23608-1507,0.9703520691785052
c6fd20af-f1f7-4aba-a639-f35379e7ed52,51105,Lee County,Non-Metro,Lenowisco,BELCHERS CHAPEL CHURCH,76,NA,NA,430200,9000,439200,NA,NA,NA,NA,NA,NA,Pennington Gap,lee,24277,36.761366,-83.012208,0.27302,11893,0,0,0.27302312993843386,PENNINGTON GAP LEE 24277,0
eb14ac19-944a-436a-adad-6f9d0ba23b21,51105,Lee County,Non-Metro,Lenowisco,HARVEST TIME MINISTRIES INC,76,NA,NA,190500,22300,188900,NA,NA,NA,NA,NA,NA,Stickleyville,lee,24244,36.713121,-82.913583,0.06458,2813,0,0,0.06458699608414846,STICKLEYVILLE LEE 24244,0
2b13c5fc-78f5-4fb8-8a71-c0a8eea49aa6,51135,Nottoway County,Non-Metro,Commonwealth Regional Council,BLACKSTONE PRESBYTERIAN,NA,NA,NA,536592,48300,584892,NA,301,NA,ST,NA,NA,BLACKSTONE,nottoway,23824-1601,37.076268,-78.002563,0.0866,3772,1,1026,0.08652059484208298,301 ST BLACKSTONE NOTTOWAY 23824-1601,0.27200424178154825
eefe86e9-4319-40cc-bc1e-4e490538b2b0,51035,Carroll County,Non-Metro,Mount Rogers,PINE GROVE CHURCH,76,NA,NA,116300,12100,128400,NA,NA,NA,NA,NA,NA,AUSTINVILLE,carroll,24312,36.817679,-80.815336,2.26315,98585,1,3193,2.2649985623753808,AUSTINVILLE CARROLL 24312,0.03238829436526855
748950ca-bdf3-43d5-a0af-fc3fae78eb40,51620,Franklin City,"Virginia Beach-Norfolk-Newport News, VA-NC",Hampton Roads,ST LUKE'S AME ZION CHURCH,76,NA,NA,137200,61100,198300,NA,509,W,AVE,NA,NA,FRANKLIN,franklin-city,23851-1801,36.675344,-76.928114,0.22784,9925,1,3363,0.22786337247220567,509 W AVE FRANKLIN FRANKLIN-CITY 23851-1801,0.3388413098236776
369a072b-6fc2-4394-9e51-635735c7578a,51173,Smyth County,Non-Metro,Mount Rogers,PLEASANT HILL CHURCH LUTHERAN,NA,NA,NA,0,15000,15000,NA,NA,NA,NA,NA,NA,NA,smyth,24368,36.890643,-81.350973,1.62512,70792,0,NA,1.6264138751222743,SMYTH 24368,NA
0b3502f9-de0e-4105-981e-dbf735afec75,51105,Lee County,Non-Metro,Lenowisco,BETHEL UNITED METHODIST CHURCH,76,NA,NA,0,8500,8500,NA,NA,NA,NA,NA,NA,NA,lee,24263,36.718337,-83.198884,0.00285,124,0,0,0.002851954732161811,LEE 24263,0
438e8113-0ad7-41cf-a9f0-a1d4bd5a157d,51700,Newport News City,"Virginia Beach-Norfolk-Newport News, VA-NC",Hampton Roads,HOUSE OF REFUGE WORSHIP CENTER,16,CHURCH/SYNAGOGUE/OTHER PLACES OF WORSHIP,NA,126500,36500,163000,NA,1217,NA,AVE,NA,NA,NEWPORT NEWS,newport-news,23607-6330,36.973924,-76.413353,0.33481,14585,3,4472,0.3349580429706839,1217 AVE NEWPORT NEWS NEWPORT-NEWS 23607-6330,0.30661638669866303
1bb665b0-6d04-4903-9ea5-9b5ab54604a3,51177,Spotsylvania County,"Washington-Arlington-Alexandria, DC-VA-MD-WV",George Washington,FAITH CHRISTIAN CENTER C/O ROCK,NA,NA,NA,2457700,342400,2800100,NA,10606,NA,RD,NA,NA,FREDERICKSBURG,spotsylvania,22408-0204,38.252013,-77.430174,12.04159,524543,3,31784,12.038069993372188,10606 RD FREDERICKSBURG SPOTSYLVANIA 22408-0204,0.06059369775213853
5a9547d1-ded6-45e7-9499-670782b611e6,51021,Bland County,"Bluefield, WV-VA",Mount Rogers,BASTIAN UNION CHURCH TRUSTEES,76,NA,NA,0,1000,1000,NA,NA,NA,DR,NA,NA,BASTIAN,bland,24314,37.152210,-81.149769,0.4664,20317,0,0,0.4667776914875304,DR BASTIAN BLAND 24314,0
4eeaf9a3-0e62-48d2-b9b1-3cd95b19c294,51770,Roanoke City,"Roanoke, VA",Roanoke Valley-Alleghany,NEW BEGINNINGS PENTECOSTAL CHURCH INC,455,Religious,NA,43500,8100,51600,NA,1402,NA,AVE,SW,NA,ROANOKE,roanoke-city,24016-2716,37.274281,-79.964570,0.09926,4324,1,2427,0.099324464861339265,1402 AVE SW ROANOKE ROANOKE-CITY 24016-2716,0.5612858464384829
7dd7e21b-49b6-42e1-bcab-6e9f235e4c78,51141,Patrick County,Non-Metro,West Piedmont,FAIRYSTONE BAPTIST CHURCH,76,NA,NA,88100,12000,100100,NA,82,NA,LOOP,NA,NA,STUART,patrick,24171-3282,36.737054,-80.211895,3.16277,137773,2,11048,3.1649863044960718,82 LOOP STUART PATRICK 24171-3282,0.08018987755220544
2518cf7f-ab58-46fb-b692-24246032d4e1,51810,Virginia Beach City,"Virginia Beach-Norfolk-Newport News, VA-NC",Hampton Roads,ST FRANCIS EPISCOPAL CHURCH,NA,NA,NA,0,11700,11700,NA,NA,NA,NA,NA,NA,VIRGINIA BEACH,virginia-beach,23452,36.824916,-76.098059,0.07854,3421,0,NA,0.07858493071507508,VIRGINIA BEACH VIRGINIA-BEACH 23452,NA
bcb86d3c-997f-467d-b4dc-94c65908f3c1,51147,Prince Edward County,Non-Metro,Commonwealth Regional Council,JERICHO BAPTIST CHURCH,NA,CHURCH/LODGE,NA,NA,NA,NA,NA,615,NA,ST,NA,NA,FARMVILLE,prince-edward,23901-2041,37.296195,-78.399597,0.3345,14571,1,5948,0.3343402421268248,615 ST FARMVILLE PRINCE-EDWARD 23901-2041,0.4082080845515064
214d1573-71d7-4241-8011-49db752bc18b,51105,Lee County,Non-Metro,Lenowisco,POWELL RIVER BAPTIST ASSOC TRUSTEE,76,NA,NA,107500,65900,173400,NA,NA,NA,NA,NA,NA,NA,lee,24263,36.670080,-83.180937,0.05635,2454,0,0,0.05633860955666664,LEE 24263,0
b20abd7d-e29e-44a3-851a-06e5ae684b03,51105,Lee County,Non-Metro,Lenowisco,WOODWAY CHURCH OF GOD TRUSTEES,76,NA,NA,0,12000,12000,NA,NA,NA,NA,NA,NA,NA,lee,24277,36.729791,-82.987899,0.08235,3587,0,0,0.08235035845431866,LEE 24277,0
2a927a6d-11cb-441b-9000-44a0a405c8a2,51103,Lancaster County,Non-Metro,Northern Neck,WHITE STONE UNITED METHODIST CHURCH,NA,NA,NA,216000,43800,259800,NA,148,NA,RD,NA,NA,WHITE STONE,lancaster,22578,37.658888,-76.390096,2.41275,105102,1,3182,2.4138414536071675,148 RD WHITE STONE LANCASTER 22578,0.030275351563243326
b519783e-8c34-4c92-a9cd-df8e0aea0f18,51149,Prince George County,"Richmond, VA",Crater,RISING MOUNT ZION BAPTIST CHURCH,760,NG-Religious (Worship),NA,519900,66200,586100,NA,20800,NA,RD,NA,NA,CARSON,prince-george,23830-9439,37.024188,-77.336178,3.39145,147735,2,5128,3.390629895197879,20800 RD CARSON PRINCE-GEORGE 23830-9439,0.03471079974278268
c748bb44-5c44-4b80-920f-94091e4427a0,51165,Rockingham County,"Harrisonburg, VA",Central Shenandoah,CHURCH-GREENMOUNT CHURCH OF,NTX,NA,NA,NA,1200,1200,NA,NA,NA,NA,NA,NA,NA,rockingham,22802,38.515436,-78.893235,0.45812,19956,0,NA,0.45811334742476145,ROCKINGHAM 22802,NA
570f3955-bd27-4081-9597-fe73892b3191,51035,Carroll County,Non-Metro,Mount Rogers,BUFFALO MOUNTAIN PRESBYTERIAN,76,NA,NA,1500,200,1700,NA,NA,NA,NA,NA,NA,NA,carroll,24380,36.777997,-80.517591,0.14257,6210,0,0,0.14267598148656152,CARROLL 24380,0
93250c46-f406-41b7-89e1-23218bed1e48,51179,Stafford County,"Washington-Arlington-Alexandria, DC-VA-MD-WV",George Washington,TRUSTEES OF UNITED FAITH CHRISTIAN M,NA,NA,NA,220900,85300,306200,NA,60,NA,DR,NA,NA,STAFFORD,stafford,22554-9435,38.450952,-77.401636,0.03181,1386,1,1274,0.03179897715296593,60 DR STAFFORD STAFFORD 22554-9435,0.9191919191919192
a5bdd1b5-4d38-4f14-80da-4474707f07ce,51660,Harrisonburg City,"Harrisonburg, VA",Central Shenandoah,FIRST PRESBYTERIAN CHURCH HARRISONBURG,B1,NA,NA,NA,NA,NA,NA,9,NA,SQ,NA,NA,HARRISONBURG,harrisonburg,22801-3723,38.450116,-78.868716,0.07055,3073,1,3028,0.07054823210297238,9 SQ HARRISONBURG HARRISONBURG 22801-3723,0.9853563293198828
4f2b7182-1a19-49b1-950c-fc79afaaf75f,51041,Chesterfield County,"Richmond, VA",PlanRVA,NEW HOPE MINISTRIES INT'L INC,NA,NA,NA,0,300,300,NA,2741,NA,RD,NA,NA,Bellwood,chesterfield,23237,37.420804,-77.441008,0.23118,10070,0,NA,0.23110428534143515,2741 RD BELLWOOD CHESTERFIELD 23237,NA
26366801-91bb-407b-8f9e-d393d0206599,51133,Northumberland County,Non-Metro,Northern Neck,WICOMICO BAPTIST CHURCH,76,NA,NA,0,1200,1200,NA,95,NA,RD,NA,NA,HEATHSVILLE,northumberland,22473,37.817006,-76.351324,0.26066,11355,1,4663,0.2607832885512682,95 RD HEATHSVILLE NORTHUMBERLAND 22473,0.41065609863496255
d1b3c8d9-59b6-49f7-a176-754401cc1e46,51670,Hopewell City,"Richmond, VA",Crater,MOUNT CALVARY BAPTIST CHURCH,CHURCH,75 EXEMPT: Religious,NA,139200,24700,163900,NA,3806,NA,RD,NA,NA,HOPEWELL,hopewell,23860-5637,37.271325,-77.313166,1.68915,73581,3,6298,1.6887832446129576,3806 RD HOPEWELL HOPEWELL 23860-5637,0.08559274812791345
3d3ec838-4a96-4e42-97a5-914e9fd7cf01,51760,Richmond City,"Richmond, VA",PlanRVA,PILGRIM BAPTIST CHURCH TRS,406,B Paved Surface Parking,NA,512000,819000,1331000,NA,2100,NA,NA,NA,NA,RICHMOND,richmond-city,23223,37.553527,-77.423182,5.83271,254078,0,NA,5.830923566309342,2100 RICHMOND RICHMOND-CITY 23223,NA
d78e4478-ec6f-4322-9ffe-619341fde3ca,51680,Lynchburg City,"Lynchburg, VA",Central Virginia,POWER OF GOD DELIVERANCE CHURCH TRS,760,NA,NA,252300,13300,265600,NA,NA,NA,NA,NA,NA,LYNCHBURG,lynchburg,24501,37.399394,-79.158184,0.44283,19290,1,4313,0.44290848980390024,LYNCHBURG LYNCHBURG 24501,0.22358735095904614
ee994324-05cc-43ed-bb0b-411a10433905,51069,Frederick County,"Winchester, VA-WV",Northern Shenandoah,FILES CHAPEL,74,NA,NA,33300,55000,88300,NA,1407,NA,RD,NA,NA,WINCHESTER,frederick,22603,39.378437,-78.251689,1.0167,44289,1,96,1.0161365464351844,1407 RD WINCHESTER FREDERICK 22603,0.002167581114949536
38a1ebc6-f1a7-49fc-a129-1bbfbd934fba,51775,Salem City,"Roanoke, VA",Roanoke Valley-Alleghany,BETHEL BAPTIST CHURCH INC,NA,Exempt,NA,0,30000,30000,NA,11,NA,AVE,NA,NA,SALEM,salem,24153,37.274361,-80.055529,0.39753,17317,0,NA,0.3977912165369844,11 AVE SALEM SALEM 24153,NA
cdcd632c-79a7-411a-8056-68cee17c9a44,51185,Tazewell County,"Bluefield, WV-VA",Cumberland Plateau,VIRGINIA AVENUE UNITED METHODIST CH,NA,Religious,NA,587000,60000,647000,NA,1901,NA,AVE,NA,NA,BLUEFIELD,tazewell,24605-1134,37.248564,-81.294419,1.34404,58548,1,5092,1.3451268785718862,1901 AVE BLUEFIELD TAZEWELL 24605-1134,0.08697137391541983
04a43a9b-6935-4486-b5ae-563efb13a1ec,51183,Sussex County,"Richmond, VA",Crater,RISING STAR HOLINESS,7,NA,NA,0,14300,14300,NA,NA,NA,NA,NA,NA,Waverly,sussex,23890,37.031110,-77.089474,0.08338,3632,0,NA,0.08337298114934615,WAVERLY SUSSEX 23890,NA
cabfa993-58b4-4597-b052-832299527273,51185,Tazewell County,"Bluefield, WV-VA",Cumberland Plateau,BETHEL METHODIST CHURCH,NA,Religious,NA,128700,8000,136700,NA,130,NA,ST,NA,NA,BLUEFIELD,tazewell,24605-1809,37.255583,-81.270559,0.23535,10252,1,1888,0.23553614263232278,130 ST BLUEFIELD TAZEWELL 24605-1809,0.18415918845103393
7873c747-2844-4dd1-8caa-25b52e302680,51175,Southampton County,"Virginia Beach-Norfolk-Newport News, VA-NC",Hampton Roads,CAPRON COMMUNITY CHURCH OF GOD,NA,NA,NA,1055500,72700,1128200,NA,9463,NA,PKWY,NA,NA,DREWRYVILLE,southampton,23844-2096,36.695483,-77.343630,6.49372,282872,2,9600,6.492041274993271,9463 PKWY DREWRYVILLE SOUTHAMPTON 23844-2096,0.033937611357787265
8de5d642-03a0-4806-923d-4cb076113afd,51161,Roanoke County,"Roanoke, VA",Roanoke Valley-Alleghany,SHENANDOAH BAPTIST CHURCH INC,NA,NA,NA,0,52600,52600,Commercial,NA,NA,RD,NA,NA,Roanoke,roanoke,24019,37.336430,-79.955978,0.59222,25798,0,NA,0.5925792632872022,RD ROANOKE ROANOKE 24019,NA
f8400c05-0a3b-44dd-95d4-7760a2a614ce,51093,Isle of Wight County,"Virginia Beach-Norfolk-Newport News, VA-NC",Hampton Roads,TR CHRIST EPISCOPAL CHURCH,76,NA,NA,1357000,150000,1507000,NA,111,S,ST,NA,NA,SMITHFIELD,isle-of-wight,23430-1332,36.982332,-76.630356,0.24703,10761,1,5910,0.24710812233920795,111 S ST SMITHFIELD ISLE-OF-WIGHT 23430-1332,0.5492054641761918
386202b6-58ac-479b-b2e7-3e8c27b720a4,51137,Orange County,Non-Metro,Rappahannock-Rapidan,MT PISGAH CHURCH,NA,RELIGIOUS,NA,154600,68100,222700,NA,28082,NA,RD,NA,NA,CULPEPER,orange,22701-8729,38.348505,-77.888347,2.07971,90594,1,3353,2.078155303409831,28082 RD CULPEPER ORANGE 22701-8729,0.03701128110029362
850b79c0-614a-43b9-ad16-e31c5e9e5307,51001,Accomack County,Non-Metro,Accomack-Northampton,FOUNDATION OF FAITH MINISTRIES,NA,NA,NA,0,11700,11700,NA,NA,NA,NA,NA,NA,Belle Haven,accomack,23306,37.548045,-75.810702,0.2583,11252,1,463,0.2584842065384828,BELLE HAVEN ACCOMACK 23306,0.041148240312833276
a72731f7-9425-4936-8cd0-955a850d5790,51143,Pittsylvania County,"Danville, VA",West Piedmont,HOLLYWOOD BAPTIST CHURCH,NA,NA,NA,0,1200,1200,NA,NA,NA,NA,NA,NA,NA,pittsylvania,24531,36.833251,-79.497533,1.05612,46006,0,NA,1.056521693429045,PITTSYLVANIA 24531,NA
6bc58e17-c637-4d6c-af7a-6b9cc438e7fe,51650,Hampton City,"Virginia Beach-Norfolk-Newport News, VA-NC",Hampton Roads,PARK PLACE BAPTIST CHURCH,500,Residential Vacant Lot,NA,0,18000,18000,NA,NA,NA,NA,NA,NA,HAMPTON,hampton,23661,37.006336,-76.396021,0.15129,6590,0,NA,0.1513547534979274,HAMPTON HAMPTON 23661,NA
3bc22c1b-3c93-4377-abe6-8ff8df700f7b,51083,Halifax County,Non-Metro,Southside,SECOND BAPTIST CHURCH,NA,NA,NA,25000,19001,44001,NA,NA,NA,AVENUE,NA,NA,South Boston,halifax,24592,36.703002,-78.911601,0.03152,1373,0,NA,0.031519400953487965,AVENUE SOUTH BOSTON HALIFAX 24592,NA
6e930ed6-fbbf-47a9-add1-2b2d2cf79d6a,51760,Richmond City,"Richmond, VA",PlanRVA,GOOD SHEPARD BAPTIST CHURCH TR,101,"R Single Family Vacant (R1-R7, ",NA,NA,62000,62000,NA,2804,NA,NA,NA,NA,RICHMOND,richmond-city,23223,37.536848,-77.409126,0.03877,1689,0,NA,0.03875688874970656,2804 RICHMOND RICHMOND-CITY 23223,NA
2d84c004-52a9-4809-a1e8-14982c0dcaaf,51680,Lynchburg City,"Lynchburg, VA",Central Virginia,NEW LIFE CHURCH OF JESUS TRS,760,NA,NA,122400,3200,125600,NA,2261,NA,AVE,NA,NA,LYNCHBURG,lynchburg,24501-6434,37.394459,-79.150279,0.08555,3726,1,1678,0.08555980032384673,2261 AVE LYNCHBURG LYNCHBURG 24501-6434,0.45034889962426194
610889af-4a96-4880-9c3a-da040b776c6e,51173,Smyth County,Non-Metro,Mount Rogers,FIRST UNITED METH CHURCH,NA,NA,NA,274400,42000,316400,NA,NA,NA,NA,NA,NA,Marion,smyth,24354,36.848237,-81.493964,0.10052,4379,1,1352,0.10059971393062161,MARION SMYTH 24354,0.30874628910710206
1efaf0fe-dc29-4632-88cc-90324c686441,51077,Grayson County,Non-Metro,Mount Rogers,GOSPEL TEMPLE & REDEEM CHURCH,NA,NA,NA,413900,15000,428900,NA,156,NA,NA,NA,NA,GALAX,grayson,24333,36.616934,-81.163424,0.40751,17751,1,2752,0.40783988700998713,156 GALAX GRAYSON 24333,0.15503351923835276
91c106f5-6985-44b2-b81f-76fec5c9ca0b,51115,Mathews County,"Virginia Beach-Norfolk-Newport News, VA-NC",Middle Peninsula,TRUSTEES OF WAYLAND BAPTIST CHURCH,NA,Primary Commercial/Indust Land,NA,385900,60200,446100,NA,NA,NA,NA,NA,NA,MATHEWS,mathews,23109,37.409745,-76.324948,2.272,98970,1,5571,2.2730965409937625,MATHEWS MATHEWS 23109,0.056289784783267655
8e8ff85c-fc24-4a91-ada2-3e0cc9d085db,51093,Isle of Wight County,"Virginia Beach-Norfolk-Newport News, VA-NC",Hampton Roads,POTOMAC CONFERENCE CORP OF SEVENTH-DAY ADVENTIST,76,NA,NA,594100,50900,645000,NA,26363,NA,HWY,NA,NA,WINDSOR,isle-of-wight,23487-4802,36.782972,-76.800701,5.62003,244814,1,6137,5.621071227800777,26363 HWY WINDSOR ISLE-OF-WIGHT 23487-4802,0.02506801081637488
2f260348-0441-4dab-a35f-9dc82900884c,51105,Lee County,Non-Metro,Lenowisco,HARVEST TIME MINISTRIES INC,76,NA,NA,369100,30000,450800,NA,NA,NA,NA,NA,NA,Stickleyville,lee,24244,36.715372,-82.912681,0.06033,2628,0,0,0.06033741881429549,STICKLEYVILLE LEE 24244,0
0eeabcdf-0831-4be8-a9d8-abd76c70d509,51105,Lee County,Non-Metro,Lenowisco,HARVEST TIME MINISTRIES INC,76,NA,NA,369100,30000,450800,NA,NA,NA,NA,NA,NA,Stickleyville,lee,24244,36.715801,-82.911954,7.4e-4,32,0,0,7.448389490030514e-4,STICKLEYVILLE LEE 24244,0
fc6018d6-54c8-4502-9ae8-569de51a152d,51810,Virginia Beach City,"Virginia Beach-Norfolk-Newport News, VA-NC",Hampton Roads,OAK GROVE BAPTIST CHURCH VIRGINIA BEACH,NA,NA,NA,0,8000,8000,NA,NA,NA,NA,NA,NA,VIRGINIA BEACH,virginia-beach,23457,36.609998,-76.034686,0.269,11718,0,NA,0.2691620656545824,VIRGINIA BEACH VIRGINIA-BEACH 23457,NA
dd647af1-c532-4841-9a42-7d7034f78a62,51127,New Kent County,"Richmond, VA",PlanRVA,ST PETERS EPISCOPAL CHURCH,NA,NA,NA,0,75800,75800,NA,ST,NA,LN,NA,NA,NEW KENT,new-kent,23124,37.540148,-77.058115,0.79152,34479,0,0,0.791524038635685,ST LN NEW KENT NEW-KENT 23124,0
e0e9f83e-90de-462d-b2ce-cfdd094ab682,51173,Smyth County,Non-Metro,Mount Rogers,EBENEZER LUTHERAN CHURCH,NA,NA,NA,0,25000,25000,NA,NA,NA,NA,NA,NA,Marion,smyth,24354,36.831244,-81.522507,0.02278,993,0,NA,0.022801930003081075,MARION SMYTH 24354,NA
7cb3c03f-5b70-47e7-9424-21b936adbb10,51620,Franklin City,"Virginia Beach-Norfolk-Newport News, VA-NC",Hampton Roads,NEW MOUNT ZION BAPTIST CHURCH,76,NA,NA,3400,16500,19900,NA,NA,NA,NA,NA,NA,FRANKLIN,franklin-city,23851,36.668613,-76.931493,0.16605,7233,1,266,0.1660604708965451,FRANKLIN FRANKLIN-CITY 23851,0.03677588828978294
5367b4cc-245c-4075-aea3-18a487212fb7,51009,Amherst County,"Lynchburg, VA",Central Virginia,CHURCH SCOTT ZION BAPTIST,NA,Tax Exempt,NA,0,10000,10000,NA,NA,NA,NA,NA,NA,NA,amherst,24572,37.444109,-79.068734,0.96154,41886,0,NA,0.9616425359195567,AMHERST 24572,NA
f827c6ec-72fc-44e4-805d-1fe85311d4cb,51073,Gloucester County,"Virginia Beach-Norfolk-Newport News, VA-NC",Hampton Roads,THE CHURCH OF ABRAHAM,76CT,Religious - Vac Com Std,NA,28990,109250,138240,NA,NA,NA,NA,NA,NA,GLOUCESTER,gloucester,23061,37.369960,-76.575395,5.03079,219146,1,1721,5.032517962032324,GLOUCESTER GLOUCESTER 23061,0.007853212013908536
0e15d1dd-a0d5-486c-90f4-2d69a124ecf7,51195,Wise County,"Big Stone Gap, VA",Lenowisco,APPALACHIA UNITED METHODIST CHURCH,7,NA,NA,188600,15000,203600,NA,527,W,ST,NA,NA,APPALACHIA,wise,24216-1723,36.903822,-82.785008,0.06575,2865,1,2188,0.0657874830208347,527 W ST APPALACHIA WISE 24216-1723,0.7636998254799302
1029c94c-f854-4e0b-a36e-1f27a4ef175d,51083,Halifax County,Non-Metro,Southside,CRYSTAL HILL BAPTIST CHURCH,NA,NA,NA,247814,28013,275827,NA,6172,NA,ROAD,NA,NA,CRYSTAL HILL,halifax,24558,36.857836,-78.908631,2.88793,125801,1,5698,2.887828511097344,6172 ROAD CRYSTAL HILL HALIFAX 24558,0.04529375760129093
e038686b-c536-4d20-b469-4a4cbc631c69,51105,Lee County,Non-Metro,Lenowisco,HARVEST TIME MINISTRIES INC,76,NA,NA,369100,30000,450800,NA,NA,NA,NA,NA,NA,Stickleyville,lee,24244,36.712750,-82.911731,0.06011,2618,0,0,0.06011429705288702,STICKLEYVILLE LEE 24244,0
1d9b7dca-c05d-4c44-bef3-6a51a18eab3e,51790,Staunton City,"Staunton, VA",Central Shenandoah,CHURCH-LINDEN HEIGHTS BAPTIST,NA,CHURCH/MANSE,NA,NA,NA,NA,NA,371,NA,DR,NA,NA,STAUNTON,staunton,24401-5044,38.130037,-79.065853,3.79805,165446,3,14555,3.798479054944647,371 DR STAUNTON STAUNTON 24401-5044,0.08797432394859954
e61bd87a-c411-452d-bf19-79c93d62351a,51041,Chesterfield County,"Richmond, VA",PlanRVA,CHESTER BAPTIST CHURCH,NA,NA,NA,0,36100,36100,NA,4324,NA,ST,NA,NA,Chester,chesterfield,23831,37.353983,-77.446622,0.30906,13463,0,NA,0.3089595612368284,4324 ST CHESTER CHESTERFIELD 23831,NA
fc7127d8-7aff-4d57-9159-421de7beac6b,51143,Pittsylvania County,"Danville, VA",West Piedmont,RINGGOLD CHRIST FELLOW TRUSTEES,NA,NA,NA,0,22500,22500,NA,NA,NA,NA,NA,NA,NA,pittsylvania,24586,36.551728,-79.229895,3.91682,170620,0,NA,3.917619517891097,PITTSYLVANIA 24586,NA
c078e247-4eb3-4acb-b57e-7ffe2f0b087a,51105,Lee County,Non-Metro,Lenowisco,HARVEST TIME MINISTRIES INC,76,NA,NA,369100,30000,450800,NA,NA,NA,NA,NA,NA,Stickleyville,lee,24244,36.714620,-82.912589,0.05677,2473,0,0,0.05677774725520274,STICKLEYVILLE LEE 24244,0
3b9c823e-999b-413f-8a78-1b9956b31947,51037,Charlotte County,Non-Metro,Commonwealth Regional Council,ANTIOCH CHURCH,NA,NA,NA,190090,14400,204490,NA,NA,NA,NA,NA,NA,KEYSVILLE,charlotte,23947,37.012224,-78.484066,0.62541,27243,1,2521,0.6251524167644319,KEYSVILLE CHARLOTTE 23947,0.09253753257717579
3fa5fca9-8630-4fa4-b05e-5e9be778483b,51061,Fauquier County,"Washington-Arlington-Alexandria, DC-VA-MD-WV",Rappahannock-Rapidan,POPLAR FORK BAPTIST CHURCH TEES,E76,RELIGIOUS,NA,143500,148700,292200,NA,NA,NA,NA,NA,NA,WARRENTON,fauquier,20187,38.700130,-77.732359,2.16297,94221,1,2620,2.161735543182785,WARRENTON FAUQUIER 20187,0.027806964477133548
e27ceba9-901e-4bfc-8260-daeea5885f5e,51105,Lee County,Non-Metro,Lenowisco,HARVEST TIME MINISTRIES INC,76,NA,NA,190500,22300,188900,NA,NA,NA,NA,NA,NA,Stickleyville,lee,24244,36.714011,-82.913691,0.05825,2538,0,0,0.05826088928147064,STICKLEYVILLE LEE 24244,0
185a80ec-3add-4626-bbed-1ba5a9816ffe,51810,Virginia Beach City,"Virginia Beach-Norfolk-Newport News, VA-NC",Hampton Roads,DOMINION CHRISTIAN CENTER,CHURCH,Church,NA,420200,318000,738200,NA,2159,NA,PKWY,NA,NA,VIRGINIA BEACH,virginia-beach,23456-1555,36.788865,-76.132794,0.00919,400,0,NA,0.009196044426976998,2159 PKWY VIRGINIA BEACH VIRGINIA-BEACH 23456-1555,NA
8fb129c4-19cd-4041-9041-dffdbb7d8371,51181,Surry County,Non-Metro,Hampton Roads,LEBANON BAPTIST CHURCH,76,NA,NA,1955700,106900,2062600,NA,162,NA,ROAD,NA,NA,SPRING GROVE,surry,23881,37.144382,-76.842199,5.51819,240377,1,14643,5.51908213153753,162 ROAD SPRING GROVE SURRY 23881,0.060916809844535874
dd6c65a9-6323-4f9a-92f9-e1599abc98bc,51143,Pittsylvania County,"Danville, VA",West Piedmont,TRUSTEES OF THE PROSPECT MISSIONARY BAPTIST CHURCH,NA,NA,NA,0,3000,3000,NA,NA,NA,NA,NA,NA,NA,pittsylvania,24541,36.550699,-79.473786,0.19718,8589,0,NA,0.19724939961219243,PITTSYLVANIA 24541,NA
64a2a837-ef2d-4f94-b669-c01b2ffe030a,51105,Lee County,Non-Metro,Lenowisco,HARVEST TIME MINISTRIES INC,76,NA,NA,369100,30000,450800,NA,NA,NA,NA,NA,NA,Stickleyville,lee,24244,36.714786,-82.910890,0.01131,493,0,0,0.011313948365138464,STICKLEYVILLE LEE 24244,0
f9b8e733-ab92-47a2-82fc-9b117aebe2d8,51067,Franklin County,"Roanoke, VA",West Piedmont,BLUE RIDGE CHAPEL INCORPORATED,74,RELIGIOUS,NA,1207900,38500,1246400,NA,NA,NA,NA,NA,NA,ROCKY MOUNT,franklin,24151,36.956320,-79.891688,2.56508,111737,1,6537,2.566578133677807,ROCKY MOUNT FRANKLIN 24151,0.058503450065779464
8965f9e6-3604-49bd-abee-2aa21084036e,51105,Lee County,Non-Metro,Lenowisco,HARDY'S CREEK BAPTIST CHURCH,76,NA,NA,189500,12000,140900,NA,517,NA,RD,NA,NA,Jonesville,lee,24263,36.688370,-83.285524,0.96413,41998,1,2619,0.963930128835502,517 RD JONESVILLE LEE 24263,0.06236011238630411
c8b94330-7be7-4721-9f9c-88ccd88514e6,51700,Newport News City,"Virginia Beach-Norfolk-Newport News, VA-NC",Hampton Roads,FULL GOSPEL KINGDOM CHURCH INC,82,COMMERCIAL PARKING,NA,40600,192600,233200,NA,NA,NA,NA,NA,NA,NEWPORT NEWS,newport-news,23607,36.981877,-76.432527,0.37292,16245,1,385,0.3730813146069532,NEWPORT NEWS NEWPORT-NEWS 23607,0.023699599876885195
e10f847a-0a99-456f-9186-e934708cb51c,51085,Hanover County,"Richmond, VA",PlanRVA,PLEASANT GROVE BAPTIST CHURCH TRUSTEES OF,NA,NA,NA,0,119400,NA,NA,8175,NA,RD,NA,NA,MECHANICSVILLE,hanover,23116-2303,37.648857,-77.364780,5.4133,235808,0,NA,5.411943873065077,8175 RD MECHANICSVILLE HANOVER 23116-2303,NA
9527e788-eda3-4aff-80d5-bc5187d53046,51690,Martinsville City,"Martinsville, VA",West Piedmont,SAINT PAULS BAPT CHURCH TRT,NA,NA,NA,0,2000,2000,NA,NA,NA,NA,NA,NA,Martinsville,martinsville,24112,36.693513,-79.880134,0.17336,7552,0,NA,0.17346111904439557,MARTINSVILLE MARTINSVILLE 24112,NA
4104f434-725f-49c5-a257-38d0619dd90f,51155,Pulaski County,"Blacksburg-Christiansburg, VA",New River Valley,MILLIRONS UNITED METHODIST CHURCH,79,NA,NA,38700,20000,58700,NA,NA,NA,NA,NA,NA,DUBLIN,pulaski,24084,37.114313,-80.878880,1.0091,43957,3,2025,1.0099284726953819,DUBLIN PULASKI 24084,0.04606774802648042
d6cc8a6c-d91a-4d9e-8388-af9791829653,51019,Bedford County,"Lynchburg, VA",Central Virginia,TREE OF LIFE MINISTRIES INC,NA,Exempt,NA,NA,NA,NA,NA,NA,NA,NA,NA,NA,BEDFORD,bedford,24523,37.301812,-79.583539,20.88643,909832,0,NA,20.895486349413623,BEDFORD BEDFORD 24523,NA
609e3fcc-5f00-429f-b9c5-48b615ee2453,51109,Louisa County,Non-Metro,Thomas Jefferson,MT ZION BAPTIST CHURCH,76,NA,NA,617300,42500,659800,NA,3909,NA,DR,NA,NA,BUMPASS,louisa,23024-2506,37.806276,-77.779270,1.88459,82094,2,5800,1.8833568233567026,3909 DR BUMPASS LOUISA 23024-2506,0.07065071747021706
dbe00dbc-a6c8-408c-b05a-b013b1a41ca4,51187,Warren County,"Washington-Arlington-Alexandria, DC-VA-MD-WV",Northern Shenandoah,SKYLINE CHURCH MOUNTAINTOP THE CHURCH AT,NA,Exempt - Religious,NA,1178300,250000,1428300,NA,7655,NA,HWY,NA,NA,FRONT ROYAL,warren,22630-7734,38.876411,-78.247847,9.5977,418085,2,15488,9.592114890179593,7655 HWY FRONT ROYAL WARREN 22630-7734,0.037045098484757885
96eefe30-ea9c-494a-a211-f83f5fac3e11,51173,Smyth County,Non-Metro,Mount Rogers,SALTVILLE BAPTIST CHURCH INC,NA,NA,NA,0,6000,6000,NA,NA,NA,NA,NA,NA,Saltville,smyth,24370,36.875803,-81.772533,0.19628,8550,0,NA,0.19642241273357483,SALTVILLE SMYTH 24370,NA
9d5376e1-e84d-45fc-a9a8-67095508f53c,51185,Tazewell County,"Bluefield, WV-VA",Cumberland Plateau,GETHSEMANE BAPTIST CHURCH,NA,Religious,NA,266000,40000,306000,NA,NA,NA,NA,NA,NA,Richlands,tazewell,24641,37.092077,-81.818412,0.6957,30305,1,7525,0.696183481899492,RICHLANDS TAZEWELL 24641,0.24830885992410492
f2acb4e3-7183-430f-b0e3-111b11b7b0bd,51009,Amherst County,"Lynchburg, VA",Central Virginia,CHURCH SCOTT ZION BAPTIST,NA,Tax Exempt-Religious,NA,2555400,87500,2642900,NA,2579,NA,RD,NA,NA,MADISON HEIGHTS,amherst,24572-5808,37.442853,-79.065395,23.99094,1045067,2,19406,23.99334041457103,2579 RD MADISON HEIGHTS AMHERST 24572-5808,0.018569144370648005
522522ff-b810-495f-994b-8159e41fd856,51121,Montgomery County,"Blacksburg-Christiansburg, VA",New River Valley,NEW MT ZION LUTHERAN,NA,Exempt/Religious,NA,44200,37100,81300,NA,NA,NA,NA,NA,NA,BLACKSBURG,montgomery,24060,37.229637,-80.523159,0.89622,39040,2,2596,0.8969141379955966,BLACKSBURG MONTGOMERY 24060,0.06649590163934427
5c1b6517-dcbb-4234-8eda-5535d4ba7620,51147,Prince Edward County,Non-Metro,Commonwealth Regional Council,FARMVILLE PRESBYTERIAN CHURCH,NA,CHURCH/LODGE,NA,NA,NA,NA,NA,216,NA,NA,NA,NA,Farmville,prince-edward,23901,37.303488,-78.393644,1.03476,45075,1,10210,1.0342516996389806,216 FARMVILLE PRINCE-EDWARD 23901,0.22651136993899057
93ed6543-5188-4f3c-820b-67e0386a0c82,51155,Pulaski County,"Blacksburg-Christiansburg, VA",New River Valley,CORNER VIEW PENTECOSTAL HOLINESS CHU,79,NA,NA,5000,2000,7000,NA,NA,NA,NA,NA,NA,NA,pulaski,24141,37.040684,-80.593918,0.11255,4903,0,NA,0.11264361874472194,PULASKI 24141,NA
0984307e-524a-4723-a533-db9a2d68bc63,51051,Dickenson County,Non-Metro,Cumberland Plateau,MILL CREEK FREEWILL BAPTIST CHURCH,7,NA,NA,NA,NA,NA,NA,1756,NA,ST,NA,NA,CLINCHCO,dickenson,24226,37.157025,-82.329483,0.34373,14973,1,2230,0.34389939963924177,1756 ST CLINCHCO DICKENSON 24226,0.14893474921525413
efb04432-d1b4-44f1-838b-eb7599b7a246,51760,Richmond City,"Richmond, VA",PlanRVA,MOUNT CARMEL BAPTIST CHURCH TR,468,B Religious/Church/Synagogue,NA,449000,221000,670000,NA,305,N,ST,NA,NA,RICHMOND,richmond-city,23223-7513,37.528015,-77.411880,0.10585,4611,1,3183,0.10581892131143833,305 N ST RICHMOND RICHMOND-CITY 23223-7513,0.690305790500976
e23f53b5-2196-4596-ae2a-ca7beaf05bd9,51149,Prince George County,"Richmond, VA",Crater,HARRISON GROVE BAPTIST CHURCH TRS,790,NG-Other,NA,0,100,100,NA,NA,NA,NA,NA,NA,PRINCE GEORGE,prince-george,23875,37.252009,-77.180591,0.98087,42727,0,0,0.9807692943431054,PRINCE GEORGE PRINCE-GEORGE 23875,0
0e6eba9d-d984-4a7f-a741-50ac2c2b5f55,51760,Richmond City,"Richmond, VA",PlanRVA,SIXTH MOUNT ZION BAPTIST CHURCH,101,"R Single Family Vacant (R1-R7, ",NA,NA,59000,59000,NA,716,NA,NA,NA,NA,RICHMOND,richmond-city,23220,37.549788,-77.438281,0.01918,836,0,NA,0.019175498201726152,716 RICHMOND RICHMOND-CITY 23220,NA
b973ccea-7a9e-4ec1-a0bc-de5860388152,51083,Halifax County,Non-Metro,Southside,DAN RIVER BAPTIST CHURCH INC,NA,NA,NA,1049655,159000,1208655,NA,1228,NA,ROAD,NA,NA,SOUTH BOSTON,halifax,24592,36.731905,-78.890049,3.34082,145529,1,14887,3.3406410268762943,1228 ROAD SOUTH BOSTON HALIFAX 24592,0.1022957623566437
a39d0622-6ad2-4c50-b462-fc9c4ffea084,51590,Danville City,"Danville, VA",West Piedmont,BAPTIST TABERNACLE,7096,Vacant Exempt Lot -Relig,NA,0,34100,34100,NA,NA,NA,NA,NA,NA,Danville,danville,24540,36.577427,-79.317994,9.93579,432812,0,NA,9.93840772931743,DANVILLE DANVILLE 24540,NA
8bc51e67-32ba-4ddc-8f02-f47f134ca3b4,51730,Petersburg City,"Richmond, VA",Crater,CHRIST EPISCOPAL CHURCH TRUST,440,House of Worship,NA,905300,195600,1100900,NA,1545,S,ST,NA,NA,PETERSBURG,petersburg,23805-1314,37.212144,-77.396250,4.73735,206363,2,13957,4.735968567409196,1545 S ST PETERSBURG PETERSBURG 23805-1314,0.06763324820825439
139fbd0d-18cd-433e-af98-037e3deccb92,51730,Petersburg City,"Richmond, VA",Crater,RESURRECTION LIFE CHRISTIAN CENTER CHURCH,440,House of Worship,NA,122800,92100,214900,NA,214,E,ST,NA,NA,PETERSBURG,petersburg,23803,37.228112,-77.399006,0.3409,14850,1,4795,0.34079955310752486,214 E ST PETERSBURG PETERSBURG 23803,0.3228956228956229
dec11669-0938-4801-a247-d253ea8f2d27,51001,Accomack County,Non-Metro,Accomack-Northampton,ONANCOCK BAPTIST CHURCH,CHURCH,Church,NA,710400,62500,772900,NA,NA,NA,NA,NA,NA,Onancock,accomack,23417,37.712650,-75.747410,0.10567,4603,1,1411,0.10574250635666306,ONANCOCK ACCOMACK 23417,0.30653921355637626
4b811f0c-6cdf-4535-8789-de9f9607a01b,51105,Lee County,Non-Metro,Lenowisco,HARVEST TIME MINISTRIES INC,76,NA,NA,369100,30000,450800,NA,NA,NA,NA,NA,NA,Stickleyville,lee,24244,36.712201,-82.911795,0.06197,2699,0,0,0.06197491822499081,STICKLEYVILLE LEE 24244,0
a1f75413-2cfc-4d73-b13b-354a3b7681e5,51027,Buchanan County,Non-Metro,Cumberland Plateau,PRAYER WARRIOR HOUSE,NA,NA,NA,1000,8200,9200,NA,1162,NA,RD,NA,NA,OAKWOOD,buchanan,24631,37.199079,-82.006775,0.23549,10258,0,NA,0.23563799440901217,1162 RD OAKWOOD BUCHANAN 24631,NA
7db42f7c-bbaf-434c-9cf7-6e6e894c6522,51157,Rappahannock County,"Washington-Arlington-Alexandria, DC-VA-MD-WV",Rappahannock-Rapidan,CHURCH,76,NA,NA,0,40000,40000,NA,NA,NA,NA,NA,NA,NA,rappahannock,22716,38.610775,-78.105102,0.74198,32321,1,732,0.7414250179748353,RAPPAHANNOCK 22716,0.022647814114662292
cf507eeb-6a4f-407f-86a9-c99580707a5f,51143,Pittsylvania County,"Danville, VA",West Piedmont,CONCORD UNITED METHODIST CHURCH,NA,0204 CHURCH,NA,617200,35000,652200,NA,2880,NA,RD,NA,NA,CHATHAM,pittsylvania,24531-5250,36.787761,-79.435919,1.15689,50395,2,8558,1.1572814128215578,2880 RD CHATHAM PITTSYLVANIA 24531-5250,0.16981843436848892
d2ff74ab-b3a1-4e51-919e-0b54def16132,51165,Rockingham County,"Harrisonburg, VA",Central Shenandoah,CHURCH-ST JAMES UNITED METHODIST,NTX,NA,NA,NA,35000,35000,NA,NA,NA,NA,NA,NA,NA,rockingham,22841,38.382938,-78.904680,0.90367,39365,0,NA,0.9036699584419119,ROCKINGHAM 22841,NA
c77b97e1-695f-40d9-8e9b-6a6495e55c9f,51093,Isle of Wight County,"Virginia Beach-Norfolk-Newport News, VA-NC",Hampton Roads,TR MT CALVARY C/O TRUSTEES,76,NA,NA,260300,60000,320300,NA,16015,NA,BLVD,NA,NA,SMITHFIELD,isle-of-wight,23430,36.921992,-76.579929,0.8492,36992,1,2400,0.84948001701809,16015 BLVD SMITHFIELD ISLE-OF-WIGHT 23430,0.06487889273356401
4ec1223c-76fb-437a-a729-e3e70cdc307e,51121,Montgomery County,"Blacksburg-Christiansburg, VA",New River Valley,ST PAULS A M E CHURCH TRS,NA,Exempt/Religious,NA,17000,77600,94600,NA,NA,NA,NA,NA,NA,BLACKSBURG,montgomery,24060,37.230997,-80.412566,0.15851,6905,1,209,0.15863333174178082,BLACKSBURG MONTGOMERY 24060,0.030267921795800144
5cabc945-81e3-465b-b75d-2adff18d58c3,51760,Richmond City,"Richmond, VA",PlanRVA,HOLY TRINITY CHURCH TR,468,B Religious/Church/Synagogue,NA,46000,20000,66000,NA,1826,N,ST,NA,NA,RICHMOND,richmond-city,23223-5350,37.542836,-77.401308,0.12378,5392,2,1972,0.12374329283960989,1826 N ST RICHMOND RICHMOND-CITY 23223-5350,0.36572700296735905
a01a60f0-92e8-44d2-adc5-5c108508318b,51680,Lynchburg City,"Lynchburg, VA",Central Virginia,COURT STREET BAPTIST CHURCH TRS,760,NA,NA,7000,42300,49300,NA,NA,NA,NA,NA,NA,LYNCHBURG,lynchburg,24504,37.416015,-79.147040,0.17388,7575,0,NA,0.17391143147878627,LYNCHBURG LYNCHBURG 24504,NA
e08ac367-8a81-4b36-ad87-f266c93a746e,51085,Hanover County,"Richmond, VA",PlanRVA,ASHLAND CHRISTIAN CHURCH,CHURCH,NA,NA,1457800,108800,NA,NA,301,S,ST,NA,NA,ASHLAND,hanover,23005-1924,37.756245,-77.485619,0.583,25396,1,9204,0.582793559504614,301 S ST ASHLAND HANOVER 23005-1924,0.3624192786265554
a539a691-2299-40dd-8e5e-f5d20aec9924,51025,Brunswick County,Non-Metro,Southside,BAPTIST CHURCH,76,NA,NA,0,14000,14000,NA,NA,NA,LANE,NA,NA,NA,brunswick,23868,36.765328,-77.864432,1.0898,47472,0,NA,1.0889363412525381,LANE BRUNSWICK 23868,NA
37f84749-f5b6-4a1d-8ad6-7f240ab816c9,51059,Fairfax County,"Washington-Arlington-Alexandria, DC-VA-MD-WV",Northern Virginia,CHURCH UNITED METHODIST,971,NA,NA,0,6000,6000,NA,NA,NA,NA,NA,NA,Fair Oaks,fairfax,22033,38.874440,-77.377629,0.30612,13335,0,NA,0.306054052200932,FAIR OAKS FAIRFAX 22033,NA
15786317-8fc4-4e50-8648-a6a1a04521f5,51197,Wythe County,Non-Metro,Mount Rogers,TRUSTEES SHARON BAPTIST,760V,NA,NA,0,100,100,NA,NA,NA,NA,NA,NA,NA,wythe,24382,36.837456,-81.279995,1.24082,54051,0,0,1.2418208859108086,WYTHE 24382,0
e1e1ac77-877c-4f48-91c9-2936878b1c38,51185,Tazewell County,"Bluefield, WV-VA",Cumberland Plateau,GRAHAM BAPTIST TABERNACLE (TR),NA,Religious,NA,174100,10000,184100,NA,113,NA,ST,NA,NA,BLUEFIELD,tazewell,24605-1813,37.255793,-81.269531,0.20057,8737,1,3839,0.2007355813260392,113 ST BLUEFIELD TAZEWELL 24605-1813,0.43939567357216436
bbe1dee6-af5c-4e43-9cd4-eefbbb3e5b65,51135,Nottoway County,Non-Metro,Commonwealth Regional Council,PROGRESSIVE CHURCH OF JESUS,NA,NA,NA,0,11500,11500,NA,NA,NA,NA,NA,NA,Blackstone,nottoway,23824,37.077871,-78.016345,0.11611,5058,0,NA,0.11600847894401688,BLACKSTONE NOTTOWAY 23824,NA
b5e842ff-f228-45cf-961c-7a997ffa75a8,51770,Roanoke City,"Roanoke, VA",Roanoke Valley-Alleghany,PARKWAY WESLEYAN CHURCH INC,455,Religious,NA,9890400,349300,10239700,NA,3645,NA,AVE,NE,NA,ROANOKE,roanoke-city,24012-6469,37.303677,-79.883724,11.50436,501140,1,29919,11.511041983882501,3645 AVE NE ROANOKE ROANOKE-CITY 24012-6469,0.059701879714251505
4c51ecea-592b-4e3d-ba2e-8628b0792977,51620,Franklin City,"Virginia Beach-Norfolk-Newport News, VA-NC",Hampton Roads,NEW MOUNT ZION BAPTIST CHURCH,76,NA,NA,0,8300,8300,NA,1411,NA,AVE,NA,NA,FRANKLIN,franklin-city,23851,36.668675,-76.931344,0.16605,7233,0,0,0.16606021320920497,1411 AVE FRANKLIN FRANKLIN-CITY 23851,0
517f609a-b866-40a3-8617-e6bac8734600,51770,Roanoke City,"Roanoke, VA",Roanoke Valley-Alleghany,THE AGAPE CENTER CORPORATION INC,456,Charitable,NA,367000,317700,684700,NA,1568,NA,ST,NE,NA,ROANOKE,roanoke-city,24012-6016,37.298293,-79.901939,2.84493,123928,3,21183,2.8466083243792593,1568 ST NE ROANOKE ROANOKE-CITY 24012-6016,0.1709298947776128
a87f910b-4cf0-4b2d-a506-544741a0c10b,51041,Chesterfield County,"Richmond, VA",PlanRVA,ENON BAPTIST CHURCH,NA,NA,NA,0,7900,7900,NA,13617,N,RD,NA,NA,Enon,chesterfield,23836,37.342276,-77.323088,1.67034,72761,0,NA,1.669966751348736,13617 N RD ENON CHESTERFIELD 23836,NA
b9b390df-2a81-4710-9b62-06a86fb74179,51775,Salem City,"Roanoke, VA",Roanoke Valley-Alleghany,COMMUNITY CHURCH INC,NA,Exempt,NA,1957700,377500,2335200,NA,1923,E,ST,NA,NA,SALEM,salem,24153-4522,37.299741,-80.022181,2.32287,101186,1,17550,2.3243494716303363,1923 E ST SALEM SALEM 24153-4522,0.17344296641827922
fc101563-f6df-4ebe-bd95-6c5e02a543cc,51187,Warren County,"Washington-Arlington-Alexandria, DC-VA-MD-WV",Northern Shenandoah,VIRGINIA HILLS CHURCH CHURCH CORNERSTONE BAPTIST (THE),NA,Exempt - Religious,NA,0,79400,79400,NA,NA,NA,NA,NA,NA,FRONT ROYAL,warren,22630,38.979014,-78.169728,4.95157,215695,0,NA,4.948309311421487,FRONT ROYAL WARREN 22630,NA
203d3e7e-72db-45be-a4da-73c0502651a1,51085,Hanover County,"Richmond, VA",PlanRVA,"FIRST BAPTIST CHURCH, TRUSTEES OF",NA,NA,NA,0,2500,NA,NA,800,NA,ST,NA,NA,ASHLAND,hanover,23005-1110,37.765366,-77.494970,0.06035,2629,0,NA,0.06032342068942258,800 ST ASHLAND HANOVER 23005-1110,NA
6f2f63ad-6d1e-4407-9f3a-5efb63e2c087,51109,Louisa County,Non-Metro,Thomas Jefferson,THESSOLONIA BAPTIST CHURCH,76,NA,NA,60000,35000,95000,NA,NA,NA,NA,NA,NA,MINERAL,louisa,23117,38.021948,-77.923319,1.18156,51470,1,4618,1.1806106969496262,MINERAL LOUISA 23117,0.08972216825335147
f11e3741-ec74-42b6-a658-dae16c2d4544,51105,Lee County,Non-Metro,Lenowisco,HARVEST TIME MINISTRIES INC,76,NA,NA,369100,30000,450800,NA,NA,NA,NA,NA,NA,Stickleyville,lee,24244,36.712786,-82.911047,0.05401,2353,0,0,0.054019982899731124,STICKLEYVILLE LEE 24244,0
10871bdd-746a-4f88-ae84-ae9cb60e6d6e,51590,Danville City,"Danville, VA",West Piedmont,CHRISTIAN LIFE BAPTIST CHURCH TRUSTEES,7866,Church Exmpt Religious,NA,220300,5200,225500,NA,206,NA,DR,NA,NA,DANVILLE,danville,24541-4406,36.561822,-79.416502,0.96605,42082,1,2538,0.9663643577604185,206 DR DANVILLE DANVILLE 24541-4406,0.06031082172900527
a3f34b5a-e59e-4200-878b-8ab823cdc295,51155,Pulaski County,"Blacksburg-Christiansburg, VA",New River Valley,BRUSH ARBOR WORSHIP CENTER,79,NA,NA,0,8000,8000,NA,NA,NA,NA,NA,NA,Pulaski,pulaski,24301,37.050479,-80.764597,0.2302,10028,2,556,0.23038354478117865,PULASKI PULASKI 24301,0.05544475468687674
90aac6c7-55f3-4b04-b0ee-4ecc8eab91d1,51077,Grayson County,Non-Metro,Mount Rogers,MT ZION METHODIST CHURCH,NA,NA,NA,274700,15000,289700,NA,848,NA,RD,NA,NA,ELK CREEK,grayson,24326,36.733710,-81.239350,1.96749,85705,1,3594,1.9690809713834143,848 RD ELK CREEK GRAYSON 24326,0.04193454290881512
414fa527-9aad-4e52-a6a1-1b4a7de3a5f3,51013,Arlington County,"Washington-Arlington-Alexandria, DC-VA-MD-WV",Northern Virginia,ADVENT EVANGELICAL LUTHERAN,215,Gen Comm - other,NA,282400,2256400,2538800,NA,2222,S,RD,NA,NA,ARLINGTON,arlington,22202-2123,38.853597,-77.068727,0.99986,43555,2,6627,0.9998928249706199,2222 S RD ARLINGTON ARLINGTON 22202-2123,0.15215245092411894
15e5e1fb-a3c8-4fdd-88e1-93c12617549c,51173,Smyth County,Non-Metro,Mount Rogers,CHRISTIAN UNITY CHURCH,NA,NA,NA,40000,10000,50000,NA,NA,NA,NA,NA,NA,Seven Mile Ford,smyth,24354,36.810038,-81.625164,0.09748,4246,0,NA,0.09755174426174457,SEVEN MILE FORD SMYTH 24354,NA
9ff782ed-85b2-4182-9e6a-69e90c50092e,51113,Madison County,"Washington-Arlington-Alexandria, DC-VA-MD-WV",Rappahannock-Rapidan,MT NEBO LUTHERAN CHURCH,76,NA,NA,363300,60000,423300,NA,3980,NA,NA,NA,NA,ROCHELLE,madison,22738,38.286689,-78.273871,1.50884,65726,1,3325,1.5079641104397221,3980 ROCHELLE MADISON 22738,0.05058880808203755
a041d48b-f0a2-4783-97d6-340115c84a34,51690,Martinsville City,"Martinsville, VA",West Piedmont,"FIRST ASSEMBLY OF GOD CHURCH, TRUSTEES",NA,NA,NA,0,8100,8100,NA,NA,NA,NA,NA,NA,Martinsville,martinsville,24112,36.694794,-79.850349,5.11304,222729,1,206,5.115912774856018,MARTINSVILLE MARTINSVILLE 24112,9.248907865612471e-4
69eec35d-fc46-4cfb-ae4b-3d9d6ca9422b,51760,Richmond City,"Richmond, VA",PlanRVA,WESTWOOD BAPTIST CHURCH TR,106,R Paved Parking,NA,NA,12000,12000,NA,5411,NA,NA,NA,NA,RICHMOND,richmond-city,23226,37.579986,-77.509670,0.05964,2598,0,NA,0.05961393580375334,5411 RICHMOND RICHMOND-CITY 23226,NA
3df9c5f1-683b-4d41-8659-a88cc1acd65b,51141,Patrick County,Non-Metro,West Piedmont,ROSS HARBOUR METHODIST CHURCH,76,NA,NA,101900,12000,113900,NA,NA,NA,NA,NA,NA,STUART,patrick,24171,36.755100,-80.197905,0.03585,1561,0,0,0.03587105263141968,STUART PATRICK 24171,0
9a5cae99-591e-4c79-8a0c-aac4e91dbbe8,51690,Martinsville City,"Martinsville, VA",West Piedmont,STONE MEMORIAL CHRISTIAN CHURCH,NA,NA,NA,0,1200,1200,NA,NA,NA,NA,NA,NA,Martinsville,martinsville,24112,36.691589,-79.864820,0.11255,4903,0,NA,0.11261848239603428,MARTINSVILLE MARTINSVILLE 24112,NA
e35bd7b2-441f-4e67-875b-8c7d19e4cfc9,51036,Charles City County,"Richmond, VA",PlanRVA,LIBERTY BAPTIST CHURCH,NA,/EXEMPT RELIGIOUS,NA,NA,100,100,NA,NA,NA,NA,NA,NA,NA,charles-city,23030,37.363096,-76.991032,0.68551,29862,0,NA,0.6855519928646796,CHARLES-CITY 23030,NA
77b4afbf-20ad-4aa1-929b-712212679489,51710,Norfolk City,"Virginia Beach-Norfolk-Newport News, VA-NC",Hampton Roads,FIRST LUTHERAN CH TRS,670,Religious Vacant Land,FALSE,0,116900,116900,NA,NA,NA,NA,NA,NA,Norfolk,norfolk,23517,36.867070,-76.299305,0.09229,4020,0,0,0.0923397085566765,NORFOLK NORFOLK 23517,0
432a04d8-73c0-4a0b-9d77-6a611b7f454b,51810,Virginia Beach City,"Virginia Beach-Norfolk-Newport News, VA-NC",Hampton Roads,LONDON BRIDGE BAPTIST CHURCH,NA,NA,NA,21840600,4460900,26301500,NA,2460,NA,RD,NA,NA,VIRGINIA BEACH,virginia-beach,23454-4322,36.837177,-76.055085,20.33717,885906,3,86030,20.349452572046786,2460 RD VIRGINIA BEACH VIRGINIA-BEACH 23454-4322,0.0971096256261951
9209ae78-38f7-4b87-8d32-ec4917607b55,51173,Smyth County,Non-Metro,Mount Rogers,MT ZION TEMPLE CHURCH,NA,NA,NA,0,6000,6000,NA,NA,NA,NA,NA,NA,Marion,smyth,24354,36.829827,-81.515911,0.11719,5105,0,NA,0.1172788240018382,MARION SMYTH 24354,NA
6337540f-a828-42fe-9354-cfe15c19ba76,51143,Pittsylvania County,"Danville, VA",West Piedmont,THE ASSEMBLY CHAPEL BAPTIST CH,NA,0204 CHURCH,NA,286900,36400,323300,NA,5453,NA,RD,NA,NA,CASCADE,pittsylvania,24069-2509,36.566251,-79.665060,3.90098,169930,1,3717,3.9028111766309586,5453 RD CASCADE PITTSYLVANIA 24069-2509,0.021873712705231568
c683db33-41b8-40e3-9e64-6a052b3b4771,51125,Nelson County,"Charlottesville, VA",Thomas Jefferson,TRINITY EPISCOPAL CHURCH,76,76-religious,NA,0,6000,6000,NA,NA,NA,NA,NA,NA,ARRINGTON,nelson,22922,37.715669,-78.901009,1.26038,54904,0,0,1.2603578842222052,ARRINGTON NELSON 22922,0
aae99e3e-3693-4f8d-bb21-68625baa6956,51550,Chesapeake City,"Virginia Beach-Norfolk-Newport News, VA-NC",Hampton Roads,GREAT BRIDGE BAPTIST CHURCH,7600,NA,NA,87800,613800,701600,NA,NA,NA,NA,NA,NA,Chesapeake,chesapeake,23322,36.703388,-76.235873,1.24796,54362,0,NA,1.2486081426679279,CHESAPEAKE CHESAPEAKE 23322,NA
df1d32fa-1aa2-47ca-b9d7-4671716f2031,51041,Chesterfield County,"Richmond, VA",PlanRVA,KOREAN BAPTIST CH OF RICH TRS,170,NA,NA,1572700,44400,1617100,NA,6925,NA,RD,NA,NA,NORTH CHESTERFIELD,chesterfield,23234-6252,37.425163,-77.470604,1.29898,56585,1,8000,1.2985172416648467,6925 RD NORTH CHESTERFIELD CHESTERFIELD 23234-6252,0.1413802244411063
9d8d1d24-8528-49fb-bc4c-47010c0cca29,51710,Norfolk City,"Virginia Beach-Norfolk-Newport News, VA-NC",Hampton Roads,CALVARY TEMPLE CHURCH TRS,500,Residential Vacant lot,FALSE,0,108900,108900,NA,NA,NA,NA,NA,NA,Norfolk,norfolk,23502,36.853283,-76.213951,0.25608,11155,0,0,0.2562190472731626,NORFOLK NORFOLK 23502,0
e393fcba-371b-4f70-aa17-13d04bbff02a,51085,Hanover County,"Richmond, VA",PlanRVA,MT ZION BAPTIST TRUSTEES,RES,NA,NA,499100,78100,NA,NA,2371,NA,RD,NA,NA,MECHANICSVILLE,hanover,23111-6015,37.641941,-77.188405,0.5271,22961,1,3468,0.5270485266745321,2371 RD MECHANICSVILLE HANOVER 23111-6015,0.15103871782587866
23f85c32-330d-419e-bc03-6ff369fd382b,51033,Caroline County,Non-Metro,George Washington,TRS OF CALVERY BAPTIST CHURCH,76,NA,NA,0,60000,60000,NA,NA,NA,NA,NA,NA,BOWLING GREEN,caroline,22427,38.048614,-77.348235,0.36852,16053,1,8391,0.3684383679856973,BOWLING GREEN CAROLINE 22427,0.5227060362549056
95e2fdec-8c70-45a3-ab58-4d43102f6452,51041,Chesterfield County,"Richmond, VA",PlanRVA,FIRST CONGREGATIONAL CHRISTIAN,170,NA,NA,1196600,53800,1250400,NA,4310,NA,RD,NA,NA,CHESTERFIELD,chesterfield,23832-7212,37.434547,-77.584296,4.8806,212603,2,9705,4.878327724160885,4310 RD CHESTERFIELD CHESTERFIELD 23832-7212,0.04564846215716618
11bee90f-2027-4dd6-96ee-f9fabfabf58a,51770,Roanoke City,"Roanoke, VA",Roanoke Valley-Alleghany,TRUSTEES OF SAVED BY GRACE HOLINESS CHURCH,100,Vacant Land,NA,0,5600,5600,NA,322,NA,ST,NW,NA,ROANOKE CITY,roanoke-city,24017,37.280127,-79.958544,0.07888,3436,0,0,0.07893060258682964,322 ST NW ROANOKE CITY ROANOKE-CITY 24017,0
33227b71-5bb4-470b-8191-9aa0a0888c74,51710,Norfolk City,"Virginia Beach-Norfolk-Newport News, VA-NC",Hampton Roads,BETHLEHEM MISSIONARY BAPT CHURCH,500,Residential Vacant lot,FALSE,0,24200,24200,NA,NA,NA,NA,NA,NA,Norfolk,norfolk,23504,36.855303,-76.266511,0.06107,2660,0,0,0.06110305075017694,NORFOLK NORFOLK 23504,0
44cbd133-e688-4659-8b56-c2090e0a26d1,51195,Wise County,"Big Stone Gap, VA",Lenowisco,FIRST PENTECOSTAL CHURCH,7,NA,NA,0,100000,100000,NA,1,NA,AVE,NA,NA,BIG STONE GAP,wise,24219,36.879114,-82.745309,0.15971,6960,0,0,0.1598079394841957,1 AVE BIG STONE GAP WISE 24219,0
58086cb9-0540-478f-a4c3-f15930987018,51105,Lee County,Non-Metro,Lenowisco,FIRST BIBLE BAPTIST CHURCH,76,NA,NA,183800,25000,197300,NA,NA,NA,NA,NA,NA,NA,lee,24263,36.679887,-83.153750,0.05694,2480,0,0,0.05693747469884132,LEE 24263,0
564ffda6-1155-4e9e-b75f-6b4cd3834e97,51800,Suffolk City,"Virginia Beach-Norfolk-Newport News, VA-NC",Hampton Roads,CROSSPOINTE FREE WILL BAPTIST,760C,Church,NA,536900,925700,1462600,NA,2460,NA,BLVD,NA,NA,SUFFOLK,suffolk,23434-4236,36.762778,-76.591324,2.33497,101714,1,14350,2.335733261188324,2460 BLVD SUFFOLK SUFFOLK 23434-4236,0.14108185697150835
f0c98885-6c23-49e3-8640-6adb184aadde,51035,Carroll County,Non-Metro,Mount Rogers,NEW BEGINNINGS COMMUNITY CHURCH TRS,76,NA,NA,525200,21500,546700,NA,1790,NA,RD,NA,NA,CANA,carroll,24317-4112,36.571380,-80.716352,1.73025,75371,1,9638,1.7316449827779994,1790 RD CANA CARROLL 24317-4112,0.12787411603932547
ee26cb98-a82f-4d05-862b-f6c820f2778f,51111,Lunenburg County,Non-Metro,Commonwealth Regional Council,VICTORIA BAPTIST CHURCH,NA,NONGOVERNMENTAL - RELIGIOUS,NA,1174000,25000,1208200,NA,NA,NA,NA,NA,NA,Victoria,lunenburg,23974,36.995280,-78.226261,0.07385,3217,1,1331,0.07379662360775703,VICTORIA LUNENBURG 23974,0.4137395088591856
0eb75ac3-6394-4e0c-913d-a02553e52b9e,51690,Martinsville City,"Martinsville, VA",West Piedmont,FIRST BAPTIST CHURCH,NA,NA,NA,1589000,631100,2220100,NA,23,NA,AVE,NA,NA,MARTINSVILLE,martinsville,24112-2921,36.685687,-79.864257,5.54814,241682,1,42526,5.551296315203121,23 AVE MARTINSVILLE MARTINSVILLE 24112-2921,0.1759584909095423
447b4d7b-c8bd-4d5d-8a32-bde2bb93c18f,51097,King and Queen County,"Richmond, VA",Middle Peninsula,CHURCH,NA,NA,NA,60000,31000,688800,NA,NA,NA,NA,NA,NA,ST STEPHENS CH,king-and-queen,23148,37.801614,-77.054453,2.54937,111053,1,8167,2.549410386381286,ST STEPHENS CH KING-AND-QUEEN 23148,0.07354146218472261
b89b7e05-e196-4c0b-ac4f-a7c43a13fce8,51185,Tazewell County,"Bluefield, WV-VA",Cumberland Plateau,FIRST CHRISTIAN CHURCH,NA,Religious,NA,459200,36000,495200,NA,1502,NA,ST,NA,NA,RICHLANDS,tazewell,24641,37.094383,-81.799350,0.23857,10392,1,4086,0.23873806369040773,1502 ST RICHLANDS TAZEWELL 24641,0.3931870669745958
d022a371-eb32-4a43-a91f-058e5a0916e3,51143,Pittsylvania County,"Danville, VA",West Piedmont,MOTLEY PRAYER HOUSE OF DELIVERANCE CH INC,NA,0204 CHURCH,NA,22800,20000,42800,NA,171,NA,RD,NA,NA,GRETNA,pittsylvania,24557-3414,37.068272,-79.362967,1.37737,60000,1,1736,1.3777856072573886,171 RD GRETNA PITTSYLVANIA 24557-3414,0.028933333333333332
fe8f15a0-f0ec-4e83-a7c0-fd8c0d4bd132,51143,Pittsylvania County,"Danville, VA",West Piedmont,BLAIRS BAPTIST CHURCH,NA,0204 CHURCH,NA,1376400,125500,1501900,NA,5260,NA,NA,NA,NA,BLAIRS,pittsylvania,24527,36.683117,-79.370214,0.19115,8327,1,1282,0.19120951198163566,5260 BLAIRS PITTSYLVANIA 24527,0.15395700732556744
73c4fd24-34d0-486d-9bbc-abe447244d78,51770,Roanoke City,"Roanoke, VA",Roanoke Valley-Alleghany,ROANOKE SOUTHWEST CHURCH OF GOD OF PROPHECY INC,455,Religious,NA,165000,11100,176100,NA,2301,NA,AVE,SW,NA,ROANOKE,roanoke-city,24015-5519,37.271830,-79.979769,0.11482,5002,1,3371,0.11489121002711604,2301 AVE SW ROANOKE ROANOKE-CITY 24015-5519,0.6739304278288685
a67fda13-8975-4b9b-91a2-92461bb027dd,51143,Pittsylvania County,"Danville, VA",West Piedmont,CHATHAM PRESBYTERIAN CHURCH,NA,0204 CHURCH,NA,772200,25000,797200,NA,128,N,ST,NA,NA,CHATHAM,pittsylvania,24531,36.829422,-79.397292,0.22206,9673,1,6003,0.22212959918193878,128 N ST CHATHAM PITTSYLVANIA 24531,0.6205934043213067
af0420ee-fb86-4f43-bc26-732fd1d6103e,51067,Franklin County,"Roanoke, VA",West Piedmont,BOONES MILL CHURCH OF THE BRETHREN,4,COMMERICAL/INDUSTRAL,NA,238000,82900,320900,NA,NA,NA,NA,NA,NA,Boones Mill,franklin,24065,37.119229,-79.955702,0.35586,15502,1,7769,0.3560752725594103,BOONES MILL FRANKLIN 24065,0.5011611404980003
6328c682-152d-4bf9-86b3-2e7d86a10227,51165,Rockingham County,"Harrisonburg, VA",Central Shenandoah,LANDMARK TABERNACLE OF MCGAHEYSVILLE,NTX,NA,NA,NA,278500,1952800,NA,127,NA,RD,NA,NA,MCGAHEYSVILLE,rockingham,22840,38.374283,-78.737290,5.17263,225324,4,28592,5.171900124016806,127 RD MCGAHEYSVILLE ROCKINGHAM 22840,0.1268928298805276
bca593fc-810e-458c-b538-503506c51710,51027,Buchanan County,Non-Metro,Cumberland Plateau,CHURCH OF CHRIST (THE),NA,NA,NA,0,2000,2000,NA,NA,NA,NA,NA,NA,NA,buchanan,24631,37.272008,-81.964182,0.29958,13050,0,NA,0.2997757738892975,BUCHANAN 24631,NA
45b4cd2c-4afe-4f72-b9f6-06e7a8612d8b,51173,Smyth County,Non-Metro,Mount Rogers,LAUREL SPRINGS CHURCH,NA,NA,NA,91500,30000,121500,NA,NA,NA,NA,NA,NA,MARION,smyth,24354,36.800746,-81.555451,2.1834,95111,1,2599,2.185067810838726,MARION SMYTH 24354,0.027325966502297315
4af67428-9d09-404a-ba88-1ec224e72099,51680,Lynchburg City,"Lynchburg, VA",Central Virginia,NEW LIFE CHURCH OF JESUS,760,NA,NA,0,2400,2400,NA,NA,NA,NA,NA,NA,LYNCHBURG,lynchburg,24501,37.394520,-79.150335,0.07106,3096,1,1783,0.07107570363330921,LYNCHBURG LYNCHBURG 24501,0.5759043927648578
7f1db83c-6f0e-4326-86ad-975de03bb042,51690,Martinsville City,"Martinsville, VA",West Piedmont,FULLER MEMORIAL BAPTIST CHURCH,NA,NA,NA,441500,25000,466500,NA,1204,NA,ST,NA,NA,MARTINSVILLE,martinsville,24112-4118,36.676215,-79.884166,0.08901,3877,0,NA,0.0890598240630385,1204 ST MARTINSVILLE MARTINSVILLE 24112-4118,NA
802e119e-d6cd-402a-8325-2c073cf90d64,51015,Augusta County,"Staunton, VA",Central Shenandoah,MOUNT AIREY BAPTIST CHURCH,NA,NA,NA,NA,NA,30000,NA,NA,NA,NA,NA,NA,Middlebrook,augusta,24459,38.051206,-79.221527,0.13825,6022,1,726,0.138280750327363,MIDDLEBROOK AUGUSTA 24459,0.12055795416805049
74b5c1c3-ee42-43ac-ac01-6da38bb617ef,51051,Dickenson County,Non-Metro,Cumberland Plateau,KISER BENJ CHURCH,7,NA,NA,NA,NA,NA,NA,NA,NA,NA,NA,NA,NA,dickenson,24256,37.254479,-82.352650,21.85405,951982,3,2920,21.864263445770643,DICKENSON 24256,0.003067284885638594
26d27797-3320-4910-bc40-95eecf13a1df,51195,Wise County,"Big Stone Gap, VA",Lenowisco,EAST STONE GAP BAPTIST,7,NA,NA,179600,18000,197600,NA,NA,E,RD,NA,NA,EAST STONE GAP,wise,24246,36.867410,-82.742993,0.07778,3389,0,0,0.07782634922153002,E RD EAST STONE GAP WISE 24246,0
00640048-e460-4121-8d62-1e1039c15256,51019,Bedford County,"Lynchburg, VA",Central Virginia,FAITH LIFE MISSION TRS,NA,Exempt,NA,NA,NA,NA,NA,NA,NA,NA,NA,NA,Montvale,bedford,24122,37.385453,-79.724377,0.20613,8979,0,NA,0.2062380239969269,MONTVALE BEDFORD 24122,NA
988e9198-2c46-4a2e-ad45-89931cc74225,51001,Accomack County,Non-Metro,Accomack-Northampton,ONLEY BAPTIST CHURCH,GENOFF,Office Building,NA,50300,45000,95300,NA,NA,NA,NA,NA,NA,Onley,accomack,23418,37.690938,-75.716509,0.24197,10540,1,1577,0.24214473654949353,ONLEY ACCOMACK 23418,0.14962049335863378
d1bcdab2-d6cc-47a5-ad5f-1e5972e6bc6e,51510,Alexandria City,"Washington-Arlington-Alexandria, DC-VA-MD-WV",Northern Virginia,MT NEBO PENECOSTAL CHURCH TRS OF,760,CHURCHES/RELIGIOUS,NA,232782,190043,422825,NA,2300,NA,AVE,NA,NA,ALEXANDRIA,alexandria,22301-1169,38.826888,-77.053796,0.15692,6836,2,2140,0.1569281938980177,2300 AVE ALEXANDRIA ALEXANDRIA 22301-1169,0.3130485664131071
3304edb2-8044-4842-8fb2-f2193dd2c37d,51590,Danville City,"Danville, VA",West Piedmont,TRINITY BAPTIST CHURCH TRUSTEES,7866,Church Exmpt Religious,NA,667300,32400,699700,NA,399,S,ST,NA,NA,DANVILLE,danville,24541-2925,36.574727,-79.404765,0.17394,7577,1,3557,0.17399451394110793,399 S ST DANVILLE DANVILLE 24541-2925,0.4694470106902468
08432e2e-18cf-4eeb-b1ed-4d6c3a6610d4,51680,Lynchburg City,"Lynchburg, VA",Central Virginia,MT ZION CHURCH,760,NA,NA,187700,90000,277700,NA,5912,NA,DR,NA,NA,LYNCHBURG,lynchburg,24502-1806,37.374196,-79.194679,1.65765,72209,1,4128,1.6579709105830365,5912 DR LYNCHBURG LYNCHBURG 24502-1806,0.05716738910662106
80cb2919-f1d0-4a0a-8a5b-6978651f4961,51167,Russell County,Non-Metro,Cumberland Plateau,MURRAY CHAPEL CHURCH,7,NA,NA,18100,8000,26100,NA,NA,NA,NA,NA,NA,HONAKER,russell,24260,37.028279,-81.981460,0.10117,4407,0,0,0.10123649131551637,HONAKER RUSSELL 24260,0
dace014b-a4e2-4aaf-9c2c-71827b26d0d0,51153,Prince William County,"Washington-Arlington-Alexandria, DC-VA-MD-WV",Northern Virginia,TRUSTEES DUMFRIES UNITED METHODIST,972,NA,NA,NA,NA,NA,NA,17640,NA,ST,NA,NA,DUMFRIES,prince-william,22026,38.569570,-77.328463,0.92082,40112,2,1785,0.9206412919163046,17640 ST DUMFRIES PRINCE-WILLIAM 22026,0.04450039888312724
d439281b-2f9e-49d6-9e26-9ac9b4712b51,51590,Danville City,"Danville, VA",West Piedmont,EVENING STAR HOLINESS CHURCH TRUSTEES,7866,Church Exmpt Religious,NA,85900,3700,89600,NA,618,NA,ST,NA,NA,DANVILLE,danville,24540-3626,36.597079,-79.388362,0.25893,11279,2,2888,0.2590100240595547,618 ST DANVILLE DANVILLE 24540-3626,0.2560510683571239
14686c0d-c78c-4d85-9c84-865101055b3b,51105,Lee County,Non-Metro,Lenowisco,HARVEST TIME MINISTRIES INC,76,NA,NA,369100,30000,450800,NA,NA,NA,NA,NA,NA,Stickleyville,lee,24244,36.712578,-82.911071,0.05464,2380,0,0,0.05464903444480583,STICKLEYVILLE LEE 24244,0
9d268c23-3550-49c9-a3f3-2459b29d64b9,51770,Roanoke City,"Roanoke, VA",Roanoke Valley-Alleghany,WEST END METHODIST CHURCH,455,Religious,NA,723300,49000,772300,NA,516,NA,ST,SW,NA,ROANOKE CITY,roanoke-city,24016,37.270878,-79.963417,0.40014,17430,2,10175,0.4003815881778355,516 ST SW ROANOKE CITY ROANOKE-CITY 24016,0.5837636259323006
577b4c10-b1dc-4c4f-bfa3-89e4af802ffd,51103,Lancaster County,Non-Metro,Northern Neck,HISTORIC WHITE MARSH CHURCH INC,NA,NA,NA,0,3800,3800,NA,NA,NA,NA,NA,NA,NA,lancaster,22503,37.759356,-76.421866,1.88251,82004,0,0,1.883335063291947,LANCASTER 22503,0
9ded9a50-0a1c-4c6a-bd5f-601f89adc1f0,51143,Pittsylvania County,"Danville, VA",West Piedmont,LAUREL GROVE BAPTIST CHURCH,NA,NA,NA,0,400,400,NA,NA,NA,NA,NA,NA,NA,pittsylvania,24594,36.678608,-79.219648,0.13637,5940,2,734,0.13639461599121028,PITTSYLVANIA 24594,0.12356902356902356
82299bc0-f1d1-4765-bf67-d53d1a41b6a7,51041,Chesterfield County,"Richmond, VA",PlanRVA,MT PISGAH UNITED METHODIST CH,170,NA,NA,4467800,396000,4863800,NA,1110,NA,DR,NA,NA,Midlothian,chesterfield,23113,37.503897,-77.645878,1.96692,85681,1,15325,1.9658836637263657,1110 DR MIDLOTHIAN CHESTERFIELD 23113,0.17886112440330995
962a0ce8-b270-498c-a1c1-c43930938d3e,51041,Chesterfield County,"Richmond, VA",PlanRVA,GOD'S MIRACLE CHURCH,NA,NA,NA,0,62200,62200,NA,1803,NA,DR,NA,NA,Manchester,chesterfield,23225,37.481245,-77.520686,5.65653,246404,7,10003,5.654256644245798,1803 DR MANCHESTER CHESTERFIELD 23225,0.04059593188422266
1cbc328b-88d6-4ac7-9fd7-6849b6eb52fb,51143,Pittsylvania County,"Danville, VA",West Piedmont,WILLIAMSON MEMORIAL PRES CHURCH,NA,0204 CHURCH,NA,429200,39000,468200,NA,NA,NA,NA,NA,NA,NA,pittsylvania,24586,36.567929,-79.327703,0.09235,4023,0,NA,0.09237094965399402,PITTSYLVANIA 24586,NA
adfb7cbb-4737-44b1-9133-a8c34976cf14,51550,Chesapeake City,"Virginia Beach-Norfolk-Newport News, VA-NC",Hampton Roads,FIRST BAPTIST CH OF GILMERTON,4000,NA,NA,0,31400,31400,NA,NA,NA,NA,NA,NA,Chesapeake,chesapeake,23323,36.771173,-76.310596,0.05702,2484,0,NA,0.0570194167440565,CHESAPEAKE CHESAPEAKE 23323,NA
552cf32c-da1a-4b80-b52e-dd296435411a,51113,Madison County,"Washington-Arlington-Alexandria, DC-VA-MD-WV",Rappahannock-Rapidan,RAPIDAN BAPTIST CHURCH,76,NA,NA,599800,71700,671500,NA,150,NA,LN,NA,NA,MADISON,madison,22727-2716,38.354340,-78.345671,2.179,94919,1,5641,2.177908309843419,150 LN MADISON MADISON 22727-2716,0.05942961893825262
4fb8c9bc-792f-4cbc-b7d2-6d3ffd959645,51179,Stafford County,"Washington-Arlington-Alexandria, DC-VA-MD-WV",George Washington,THE MISSION RIVERS DISTRICT OF THE,NA,NA,NA,0,240100,240100,NA,64,NA,RD,NA,NA,FREDERICKSBURG,stafford,22406,38.403185,-77.568508,24.0848,1049156,1,1714,24.074754151305868,64 RD FREDERICKSBURG STAFFORD 22406,0.0016336941312826692
b8e792c3-1d8b-4cc2-97a1-04ada48e3a04,51073,Gloucester County,"Virginia Beach-Norfolk-Newport News, VA-NC",Hampton Roads,THE CHURCH OF ABRAHAM,V2TS,Vac Res Suburban Std,NA,0,60840,60840,NA,NA,NA,NA,NA,NA,GLOUCESTER,gloucester,23061,37.371669,-76.573081,4.75079,206949,0,NA,4.752423861901759,GLOUCESTER GLOUCESTER 23061,NA
92399289-a244-46d5-9754-41d9aa3f9be6,51590,Danville City,"Danville, VA",West Piedmont,NEW PEACEFUL ZION APOSTOLIC CHURCH TRUSTEES,7096,Vacant Exempt Lot -Relig,NA,0,1900,1900,NA,NA,NA,NA,NA,NA,Danville,danville,24541,36.577162,-79.383157,0.14932,6504,0,NA,0.14936362335897413,DANVILLE DANVILLE 24541,NA
53de9844-ec3a-4e75-ae9a-b08c980acbf1,51161,Roanoke County,"Roanoke, VA",Roanoke Valley-Alleghany,FAITH WESLEYAN CHURCH,NA,CLUB/LODGE,NA,92600,47500,140100,Commercial,4379,NA,DR,NA,NA,SALEM,roanoke,24153-8159,37.290387,-80.126783,1.42115,61907,2,2702,1.4221084767958403,4379 DR SALEM ROANOKE 24153-8159,0.043646114332789504
f01653eb-6658-44c2-b466-b7565b36fee8,51810,Virginia Beach City,"Virginia Beach-Norfolk-Newport News, VA-NC",Hampton Roads,FRANCIS ASBURY METHODIST CHURCH,NA,NA,NA,2355400,1567100,3922500,NA,1871,N,RD,NA,NA,VIRGINIA BEACH,virginia-beach,23454-1110,36.896173,-76.062973,3.59636,156661,3,25283,3.5985253101197907,1871 N RD VIRGINIA BEACH VIRGINIA-BEACH 23454-1110,0.1613866884546888
a564b346-42c9-4c39-95c8-3f6eca98dd9a,51077,Grayson County,Non-Metro,Mount Rogers,FLATROCK METHODIST CHURCH,NA,NA,NA,190300,15000,205300,NA,2764,NA,NA,NA,NA,INDEPENDENCE,grayson,24348,36.641905,-81.110056,2.61823,114053,2,3713,2.620377966274754,2764 INDEPENDENCE GRAYSON 24348,0.03255504020060849
717353a2-b5e8-43fb-a49d-092ad5aa6662,51071,Giles County,"Blacksburg-Christiansburg, VA",New River Valley,FIRST METHODIST CHURCH TRUSTEE,NA,NA,NA,0,1500,1500,NA,NA,NA,NA,NA,NA,Narrows,giles,24124,37.329916,-80.808737,0.04907,2138,0,0,0.049112895566926704,NARROWS GILES 24124,0
21ac6a53-bc4d-46c2-989b-790fb640c4c7,51179,Stafford County,"Washington-Arlington-Alexandria, DC-VA-MD-WV",George Washington,FAITH CHRISTIAN FELLOWSHIP INC,NA,NA,NA,0,203800,203800,NA,NA,NA,NA,NA,NA,Falmouth,stafford,22405,38.329873,-77.480924,2.05021,89309,0,NA,2.049516119116358,FALMOUTH STAFFORD 22405,NA
d694556d-55ac-4be6-85df-de160fb49435,51173,Smyth County,Non-Metro,Mount Rogers,MADAM RUSSELL CHURCH-TRUSTEES,NA,NA,NA,0,4000,4000,NA,NA,NA,NA,NA,NA,Saltville,smyth,24370,36.879749,-81.766309,0.53744,23411,0,NA,0.5378226379418164,SALTVILLE SMYTH 24370,NA
82879da1-f44f-420c-b755-05e82077c5ea,51009,Amherst County,"Lynchburg, VA",Central Virginia,CHURCH MADISON HEIGHTS BAPTIST,NA,Tax Exempt-Religious,NA,0,15000,15000,NA,NA,NA,NA,NA,NA,MADISON HEIGHTS,amherst,24572,37.422469,-79.125593,0.51816,22572,2,664,0.5182351000971901,MADISON HEIGHTS AMHERST 24572,0.029416976785397838
5044cdd8-d23d-4d90-bc30-f3b3d22220b1,51171,Shenandoah County,Non-Metro,Northern Shenandoah,MAURERTOWN BRETHREN CHURCH,NA,Vacant tax exempt,NA,0,6000,6000,NA,NA,NA,NA,NA,NA,Maurertown,shenandoah,22644,38.931307,-78.464359,0.85375,37190,0,NA,0.853431092286447,MAURERTOWN SHENANDOAH 22644,NA
e534f420-b585-4367-870e-a2e22fb0902f,51145,Powhatan County,"Richmond, VA",PlanRVA,ST LUKES EPISCOPAL CHURCH,76,NA,NA,1056300,100000,1156300,NA,2245,NA,TRL,NA,NA,POWHATAN,powhatan,23139-4403,37.594076,-77.800292,3.04189,132507,2,5313,3.039809217255187,2245 TRL POWHATAN POWHATAN 23139-4403,0.040095994928569814
0b230d39-bae2-40d1-9df5-fba61056d845,51093,Isle of Wight County,"Virginia Beach-Norfolk-Newport News, VA-NC",Hampton Roads,TR CENTRAL HILL BAPTIST CHURCH,76,NA,NA,1072000,75000,1147000,NA,10270,NA,RD,NA,NA,WINDSOR,isle-of-wight,23487-8358,36.912156,-76.746029,2.52894,110163,1,10090,2.5295068180031497,10270 RD WINDSOR ISLE-OF-WIGHT 23487-8358,0.09159155070214137
9f4b0650-5bac-4bc6-9a5c-a6bd5c200e39,51105,Lee County,Non-Metro,Lenowisco,CHRISTIAN CHURCH FELLOWSHIP,76,NA,NA,128700,15000,93400,NA,NA,NA,NA,NA,NA,NA,lee,24277,36.706249,-82.977200,0.05836,2542,0,0,0.05836759690412926,LEE 24277,0
6a396298-6edc-442a-8b1f-7d885acbd29e,51005,Alleghany County,Non-Metro,Roanoke Valley-Alleghany,COALITION FOR CHRISTIAN EDUCATION,76,NA,NA,421200,30000,451200,NA,1601,NA,ST,NA,NA,Clifton Forge,alleghany,24422,37.819646,-79.807704,0.18054,7864,0,NA,0.18063780853665384,1601 ST CLIFTON FORGE ALLEGHANY 24422,NA
f24cfc91-bcdd-43f4-8418-e86b03a7a0c8,51139,Page County,Non-Metro,Northern Shenandoah,ST PETERS LUTHERAN CHURCH,76,NA,NA,456100,60000,516100,NA,NA,NA,NA,NA,NA,SHENANDOAH,page,22849,38.489536,-78.624015,0.78069,34008,1,4913,0.7805070454623888,SHENANDOAH PAGE 22849,0.1444660079981181
444b2852-09a0-4f10-9855-c095e03e1203,51550,Chesapeake City,"Virginia Beach-Norfolk-Newport News, VA-NC",Hampton Roads,NEW GALILEE BAPTIST CHURCH,7600,NA,NA,2991600,2492500,5484100,NA,1765,S,HWY,NA,NA,CHESAPEAKE,chesapeake,23320-2678,36.790496,-76.247023,5.09896,222115,2,34513,5.101593760372175,1765 S HWY CHESAPEAKE CHESAPEAKE 23320-2678,0.15538347252549356
9d6f30c7-c475-4f3d-8cb2-df7b35f8804d,51800,Suffolk City,"Virginia Beach-Norfolk-Newport News, VA-NC",Hampton Roads,VIRGINIA KOREAN UNITED METH CH,760C,NIP,NA,206700,255200,461900,NA,5701,NA,LN,NA,NA,SUFFOLK,suffolk,23435-1721,36.863511,-76.487585,2.14156,93288,2,10742,2.142389146152674,5701 LN SUFFOLK SUFFOLK 23435-1721,0.11514878655346883
46bd4607-719c-44bd-a1d0-087b94b8764d,51195,Wise County,"Big Stone Gap, VA",Lenowisco,MAYTOWN TABERNACLE,7,NA,NA,96100,10800,106900,NA,201,NA,ST,NA,NA,COEBURN,wise,24230,36.938931,-82.473130,0.09198,4009,1,1916,0.09205735396310466,201 ST COEBURN WISE 24230,0.4779246694936393
8584a2e5-abe0-43bc-9436-7b6add39bfd4,51155,Pulaski County,"Blacksburg-Christiansburg, VA",New River Valley,MT VIEW METHODIST CHURCH,79,NA,NA,272200,20000,292200,NA,6648,NA,RD,NA,NA,DUBLIN,pulaski,24084-5616,37.087937,-80.620980,2.25724,98327,1,2846,2.2590293195218916,6648 RD DUBLIN PULASKI 24084-5616,0.028944237086456416
1d70afbe-c607-4992-bf98-61ad6f957f05,51177,Spotsylvania County,"Washington-Arlington-Alexandria, DC-VA-MD-WV",George Washington,FIRST BAPTIST CHURCH OF LOVE TRS,NA,NA,NA,0,9500,9500,NA,124,NA,RD,NA,NA,FREDERICKSBURG,spotsylvania,22408-2302,38.273769,-77.447315,0.05735,2498,0,NA,0.05733255915196873,124 RD FREDERICKSBURG SPOTSYLVANIA 22408-2302,NA
eb4f3d0e-5829-4e43-ac4d-cc1590a1537c,51105,Lee County,Non-Metro,Lenowisco,HARVEST TIME MINISTRIES INC,76,NA,NA,190500,22300,188900,NA,NA,NA,NA,NA,NA,Stickleyville,lee,24244,36.713311,-82.913955,0.05449,2373,0,0,0.05449235916387322,STICKLEYVILLE LEE 24244,0
b06ed024-5f25-4d16-ae70-618de967d464,51131,Northampton County,Non-Metro,Accomack-Northampton,CAPEVILLE UNITED METHODIST CHURCH,76,NA,NA,429500,44000,473500,NA,NA,NA,NA,NA,NA,CAPE CHARLES,northampton,23310,37.205787,-75.963215,1.20993,52706,1,9730,1.2107060130119482,CAPE CHARLES NORTHAMPTON 23310,0.18460896292642204
53403045-1677-47ab-adb3-279d6f235de5,51077,Grayson County,Non-Metro,Mount Rogers,GROWTH ENCOURAGEMENT MINISTRY INC GEM,NA,NA,NA,0,1400,1400,NA,NA,NA,NA,NA,NA,GALAX,grayson,24333,36.570389,-80.922896,0.30222,13165,0,NA,0.30247278576786474,GALAX GRAYSON 24333,NA
f17fcf51-5c98-49a4-8205-483c79f59c37,51027,Buchanan County,Non-Metro,Cumberland Plateau,FULL GOSPEL MINISTRIES CHURCH,NA,NA,NA,42100,20000,62100,NA,1077,NA,RD,NA,NA,OAKWOOD,buchanan,24631,37.207844,-82.011419,0.29886,13019,1,2736,0.29904487218483455,1077 RD OAKWOOD BUCHANAN 24631,0.21015438973807513
72ede5d6-6da6-453e-b395-81254e75ad47,51029,Buckingham County,Non-Metro,Commonwealth Regional Council,ST JOY BAPTIST CHURCH,NA,NA,NA,7500,11300,18800,NA,4389,NA,NA,NA,NA,BUCKINGHAM,buckingham,23921,37.540106,-78.647355,0.85105,37072,2,5088,0.8508390359758429,4389 BUCKINGHAM BUCKINGHAM 23921,0.13724643936124298
769911ff-73a1-4c1b-9471-a430a9c2c848,51197,Wythe County,Non-Metro,Mount Rogers,PRESBYTERIAN CHURCH,760C,NA,NA,0,81600,953500,NA,285,NA,ST,NA,NA,WYTHEVILLE,wythe,24382-2619,36.948293,-81.082361,0.61226,26671,2,12328,0.6127655344204442,285 ST WYTHEVILLE WYTHE 24382-2619,0.462224888455626
283bc5e5-64ac-48c7-b0fd-6670425449d9,51085,Hanover County,"Richmond, VA",PlanRVA,SLASH CHRISTIAN CHURCH,RES,NA,NA,879300,114900,NA,NA,11353,NA,RD,NA,NA,ASHLAND,hanover,23005-7800,37.719004,-77.414337,5.52738,240778,3,9715,5.525758088882196,11353 RD ASHLAND HANOVER 23005-7800,0.04034837069831961
abe6860a-21ca-492d-9dcc-c1b036832124,51199,York County,"Virginia Beach-Norfolk-Newport News, VA-NC",Hampton Roads,ST JOHNS BAPTIST CHURCH TRS,RELG,Religious,NA,981000,179100,1160100,NA,1397,NA,RD,NA,NA,WILLIAMSBURG,york,23185-5724,37.257467,-76.654724,5.6325,245357,2,9929,5.634140351532612,1397 RD WILLIAMSBURG YORK 23185-5724,0.04046756359101228
05753a2d-08ae-4023-bd86-9798418ff6b4,51155,Pulaski County,"Blacksburg-Christiansburg, VA",New River Valley,NEW RIVER VALLEY BAPTIST CHURCH,79,NA,NA,779400,37300,816700,NA,NA,NA,NA,NA,NA,PULASKI,pulaski,24301,37.069137,-80.776121,4.48989,195584,4,12109,4.493540667504914,PULASKI PULASKI 24301,0.06191201734293194
81e1ee2c-3e6b-4b8b-b281-2d0621e0b082,51195,Wise County,"Big Stone Gap, VA",Lenowisco,BIG STONE GAP CHURCH OF GOD,7,NA,NA,340800,36000,376800,NA,424,E,ST,NA,NA,BIG STONE GAP,wise,24219,36.871736,-82.776934,0.08318,3625,1,2195,0.08322592359641998,424 E ST BIG STONE GAP WISE 24219,0.6055172413793104
8bd90d09-344a-4257-8354-06c0117c9cd0,51185,Tazewell County,"Bluefield, WV-VA",Cumberland Plateau,FREE PENECOSTAL CHURCH OF GOD,NA,Religious,NA,166600,10000,176600,NA,2698,NA,RD,NA,NA,CEDAR BLUFF,tazewell,24609,37.125141,-81.721689,0.29298,12762,1,2833,0.29318936433763665,2698 RD CEDAR BLUFF TAZEWELL 24609,0.2219871493496317
1585dda9-9efe-47f4-a46d-8b71ac3746fb,51710,Norfolk City,"Virginia Beach-Norfolk-Newport News, VA-NC",Hampton Roads,FIRST BAPTIST CHURCH OF NORFOLK,500,Residential Vacant lot,FALSE,0,4900,4900,NA,NA,NA,NA,NA,NA,Norfolk,norfolk,23502,36.842968,-76.192618,0.08649,3768,0,0,0.08654060785901375,NORFOLK NORFOLK 23502,0
fb057578-cddc-4f98-8833-8a2691cf6ff6,51105,Lee County,Non-Metro,Lenowisco,FRIENDSHIP BAPTIST CHURCH OF JONES-,76,NA,NA,0,25000,25000,NA,NA,NA,NA,NA,NA,NA,lee,24263,36.669906,-83.184302,4.69562,204545,0,0,4.695069167799405,LEE 24263,0
1638682d-0c84-4795-b116-e87f90970386,51105,Lee County,Non-Metro,Lenowisco,POWELL RIVER BAPTIST ASSOC TRUSTEE,76,NA,NA,107500,65900,173400,NA,NA,NA,NA,NA,NA,NA,lee,24263,36.669992,-83.181956,0.05639,2456,0,0,0.05638576329481952,LEE 24263,0
9e6e258e-dfe0-4bab-b2b3-3fcc8a1f9f36,51085,Hanover County,"Richmond, VA",PlanRVA,BLACK CREEK BAPTIST CHURCH TRUSTEES,NA,NA,NA,0,139800,NA,NA,6289,NA,RD,NA,NA,MECHANICSVILLE,hanover,23111-6806,37.573828,-77.226584,6.86076,298861,0,NA,6.859865272445241,6289 RD MECHANICSVILLE HANOVER 23111-6806,NA
79c541d1-efe8-4db5-8fb1-e9c6ff5479a6,51023,Botetourt County,"Roanoke, VA",Roanoke Valley-Alleghany,SPRINGWOOD BAPTIST CHURCH,NA,NA,NA,0,35000,35000,NA,NA,NA,NA,NA,NA,BUCHANAN,botetourt,24066,37.548446,-79.756994,0.9937,43287,0,NA,0.9942231061594948,BUCHANAN BOTETOURT 24066,NA
85203118-5fd1-401c-840e-7a862a375e96,51143,Pittsylvania County,"Danville, VA",West Piedmont,TRUSTEES OF TIMBERLAKE BAPTIST CHURCH,NA,NA,NA,10000,14000,24000,NA,NA,NA,NA,NA,NA,Blairs,pittsylvania,24527,36.676104,-79.376037,0.11204,4880,0,NA,0.11207062884602224,BLAIRS PITTSYLVANIA 24527,NA
d2345056-7fef-4710-8fd8-4c33e0a3b1e7,51145,Powhatan County,"Richmond, VA",PlanRVA,GREENBRIAR BAPTIST CHURCH,76,NA,NA,335400,81700,417100,NA,4731,NA,RD,NA,NA,POWHATAN,powhatan,23139-4704,37.592506,-77.977702,2.23365,97300,1,6904,2.231682573958494,4731 RD POWHATAN POWHATAN 23139-4704,0.0709558067831449
7b2218f8-d914-4b55-8161-a41b75dbc2fb,51087,Henrico County,"Richmond, VA",PlanRVA,COMBONI MISSIONARY SISTERS INC,309,Church & Synagogue,NA,2333300,259400,2592700,NA,1307,NA,AVE,NA,NA,HENRICO,henrico,23228-4710,37.621503,-77.460216,6.10825,266081,4,18717,6.106175060187427,1307 AVE HENRICO HENRICO 23228-4710,0.07034324134380132
084de754-be29-4e27-bbfc-461472df9913,51101,King William County,"Richmond, VA",Middle Peninsula,WEST POINT CHRISTIAN CHURCH,Exempt,NA,NA,0,3600,3600,NA,NA,NA,NA,NA,NA,West Point,king-william,23181,37.540073,-76.792728,0.12776,5565,0,NA,0.12778742522940373,WEST POINT KING-WILLIAM 23181,NA
225fb880-5d2f-4611-93a6-b749b2ff8465,51013,Arlington County,"Washington-Arlington-Alexandria, DC-VA-MD-WV",Northern Virginia,UNITARIAN UNIVERSALIST CHURCH,215,Gen Comm - other,NA,6528800,2556700,9085500,NA,NA,NA,NA,NA,NA,ARLINGTON,arlington,22204,38.868352,-77.107483,1.35225,58905,1,21851,1.352245582958135,ARLINGTON ARLINGTON 22204,0.3709532297767592
e580abc5-ce93-4b87-abff-5d40b7c14340,51111,Lunenburg County,Non-Metro,Commonwealth Regional Council,PERSERVANCE CHRISTIAN CHURCH,NA,NONGOVERNMENTAL - RELIGIOUS,NA,487300,10500,497800,NA,NA,NA,NA,NA,NA,DUNDAS,lunenburg,23944,36.922389,-78.035288,2.49529,108697,1,5632,2.493049212802676,DUNDAS LUNENBURG 23944,0.05181375750940689
22652464-335e-4549-8c17-4d0bfd55f071,51199,York County,"Virginia Beach-Norfolk-Newport News, VA-NC",Hampton Roads,JESUS CHRIST LATTER DAY SAINTS CORP,RELG,Religious,NA,1936200,372800,2309000,NA,113,NA,LN,NA,NA,YORKTOWN,york,23693-2409,37.124621,-76.416177,4.32384,188350,2,17777,4.325709302198849,113 LN YORKTOWN YORK 23693-2409,0.09438279798247942
685ac17f-2854-47d5-bf43-9686fac95914,51680,Lynchburg City,"Lynchburg, VA",Central Virginia,GOSPEL COMMUNITY CHURCH INC,760,NA,NA,5200,8200,13400,NA,NA,NA,NA,NA,NA,LYNCHBURG,lynchburg,24503,37.429039,-79.153174,0.12381,5393,0,NA,0.12383142477873567,LYNCHBURG LYNCHBURG 24503,NA
6b443980-aaee-4621-955f-7024a147647d,51187,Warren County,"Washington-Arlington-Alexandria, DC-VA-MD-WV",Northern Shenandoah,BAPTIST CHURCH MARLOW HEIGHTS,NA,Exempt - Religious,NA,0,125000,125000,NA,NA,NA,NA,NA,NA,FRONT ROYAL,warren,22630,38.922292,-78.186866,0.14521,6325,0,NA,0.14511661007122745,FRONT ROYAL WARREN 22630,NA
016b13f6-8325-4d38-b4fc-8c4946126e27,51195,Wise County,"Big Stone Gap, VA",Lenowisco,COEBURN CHURCH OF GOD OF PROPHECY INC,7,NA,NA,0,25000,25000,NA,NA,NA,NA,NA,NA,COEBURN,wise,24230,36.946069,-82.463055,0.20719,9029,0,0,0.20735716353754588,COEBURN WISE 24230,0
a5fcffb0-64d8-41a7-b5a1-6cbd873ee592,51105,Lee County,Non-Metro,Lenowisco,FIRST BAPTIST CHURCH--EWING,76,NA,NA,217400,15000,188900,NA,NA,NA,NA,NA,NA,Ewing,lee,24248,36.636632,-83.430629,0.07222,3146,0,0,0.07219375436744267,EWING LEE 24248,0
15e92bfb-78b9-4b63-8aa9-6f42d6e66bae,51700,Newport News City,"Virginia Beach-Norfolk-Newport News, VA-NC",Hampton Roads,CALVARY CHAPEL NEWPORT NEWS,16,CHURCH/SYNAGOGUE/OTHER PLACES OF WORSHIP,NA,63000,30700,93700,NA,15543,NA,BLVD,NA,NA,NEWPORT NEWS,newport-news,23608-1507,37.158878,-76.558274,0.029760000000000002,1296,1,1225,0.029772305373490023,15543 BLVD NEWPORT NEWS NEWPORT-NEWS 23608-1507,0.9452160493827161
013c1f06-7133-4da1-8bfe-d8521d797c7b,51181,Surry County,Non-Metro,Hampton Roads,ST PAUL HOLINESS CHURCH TRUSTEES,76,NA,NA,0,100,100,NA,NA,NA,ROAD,NA,NA,DENDRON,surry,23839,37.100278,-76.900327,2.04,88864,0,NA,2.040245021443026,ROAD DENDRON SURRY 23839,NA
62ac9131-0017-443e-921d-ca5d49ec99bf,51173,Smyth County,Non-Metro,Mount Rogers,GRACE METHODIST CHURCH,NA,NA,NA,132700,12000,144700,NA,NA,NA,NA,NA,NA,Marion,smyth,24354,36.841748,-81.523967,0.04259,1855,1,590,0.04262157588112081,MARION SMYTH 24354,0.31805929919137466
64ac96ec-e48f-464d-8e0f-e637a34222ff,51710,Norfolk City,"Virginia Beach-Norfolk-Newport News, VA-NC",Hampton Roads,NEW CALVARY BAPTIST CHURCH TRS,670,Religious Vacant Land,FALSE,0,25800,25800,NA,NA,NA,NA,NA,NA,Norfolk,norfolk,23504-3224,36.855938,-76.277595,0.08453,3682,0,0,0.08457005901022574,NORFOLK NORFOLK 23504-3224,0
a92e6f13-4f55-4aa8-8f47-d2ad9c3567b3,51015,Augusta County,"Staunton, VA",Central Shenandoah,SHERLYND BAPTIST CHURCH,NA,NA,NA,NA,NA,1414814,NA,20,NA,LN,NA,NA,LYNDHURST,augusta,22952-2107,38.008094,-78.953473,5.7239,249338,4,18458,5.724053696764205,20 LN LYNDHURST AUGUSTA 22952-2107,0.07402802621341312
07f7f660-8860-4cad-ba95-6908e58c2d4f,51027,Buchanan County,Non-Metro,Cumberland Plateau,GARDEN CREEK CHURCH OF CHRIST (THE),NA,NA,NA,0,15000,15000,NA,NA,NA,NA,NA,NA,NA,buchanan,24631,37.207439,-82.009408,0.14286,6223,0,NA,0.14294767325064928,BUCHANAN 24631,NA
fe502284-fd4d-49e1-a81d-2f47486a3251,51169,Scott County,"Kingsport-Bristol, TN-VA",Lenowisco,RELIGION; HALE'S CHAPEL UNITED METH,NA,NA,NA,0,100,100,NA,NA,NA,NA,NA,NA,Gate City,scott,24251,36.643028,-82.587389,1.18344,51552,0,0,1.1838281803485424,GATE CITY SCOTT 24251,0
d4d43a54-1f96-45a8-b0b1-2e489a26da62,51135,Nottoway County,Non-Metro,Commonwealth Regional Council,NEW BETHEL CHURCH,NA,NA,NA,60165,13800,73965,NA,NA,NA,NA,NA,NA,CREWE,nottoway,23930,37.110351,-78.139321,1.31077,57098,2,3147,1.309763650793957,CREWE NOTTOWAY 23930,0.05511576587621283
2d078d2e-839d-4ff0-be0c-8acfe3f6a215,51183,Sussex County,"Richmond, VA",Crater,CONCORD UNITED METHODIST CHURCH,7,NA,NA,507900,41900,549800,NA,16703,NA,RD,NA,NA,STONY CREEK,sussex,23882,36.893035,-77.571024,5.20307,226651,3,9887,5.2006219776997575,16703 RD STONY CREEK SUSSEX 23882,0.043622132706231165
49e776fc-66d4-4fa9-8d4b-407a847fe2cf,51061,Fauquier County,"Washington-Arlington-Alexandria, DC-VA-MD-WV",Rappahannock-Rapidan,CATLETT ASSEMBLY OF GOD CHURCH TRUSTEES,E76,RELIGIOUS,NA,0,10000,10000,NA,NA,NA,NA,NA,NA,Catlett,fauquier,20119,38.653297,-77.635914,0.04303,1875,1,294,0.04301368771637707,CATLETT FAUQUIER 20119,0.1568
f78a2a68-38bf-41c1-af6b-c7856fade493,51770,Roanoke City,"Roanoke, VA",Roanoke Valley-Alleghany,TRUSTEES OF THE SAVED BY GRACE HOLINESS CHURCH,200,SingleFamily,NA,27800,7500,35300,NA,1201,NA,AVE,NW,NA,ROANOKE,roanoke-city,24017-5731,37.280418,-79.958252,0.14927,6502,1,2715,0.14936374910279873,1201 AVE NW ROANOKE ROANOKE-CITY 24017-5731,0.41756382651491847
4e3036aa-db1c-406a-b9b3-521559f7e0ea,51165,Rockingham County,"Harrisonburg, VA",Central Shenandoah,SOUTH CONGREGATION OF JEHOVAHS,NTX,NA,NA,NA,50300,50300,NA,NA,NA,NA,NA,NA,NA,rockingham,22802,38.480673,-78.870290,0.21514,9372,0,NA,0.2151362551219143,ROCKINGHAM 22802,NA
995a3739-702e-4044-bfb0-b854b38a0891,51031,Campbell County,"Lynchburg, VA",Central Virginia,MT MORIAH BAPTIST CHURCH TRS,202,NA,NA,0,7000,NA,NA,NA,NA,NA,NA,NA,NA,campbell,24550,37.266470,-79.267535,2.19147,95463,0,NA,2.1919995772582315,CAMPBELL 24550,NA
4002389c-09c8-4dc5-8e36-730d34482df9,51121,Montgomery County,"Blacksburg-Christiansburg, VA",New River Valley,THE AGAPE CENTER,NA,Commercial & Industrial,NA,146700,40800,187500,NA,510,NA,ST,NA,NA,CHRISTIANSBURG,montgomery,24073-1614,37.143949,-80.406916,0.12628,5501,1,1486,0.12637500599435378,510 ST CHRISTIANSBURG MONTGOMERY 24073-1614,0.27013270314488275
18add265-0b17-4f11-aa4a-9931f887c186,51173,Smyth County,Non-Metro,Mount Rogers,CEDAR BLUFF BAPTIST CHURCH,NA,NA,NA,0,5000,5000,NA,NA,NA,NA,NA,NA,Atkins,smyth,24311,36.873706,-81.396146,0.05702,2484,0,NA,0.057069675751171625,ATKINS SMYTH 24311,NA
4b87e86a-e067-42f0-9236-2b497d1c7560,51069,Frederick County,"Winchester, VA-WV",Northern Shenandoah,HEBRON BAPTIST CHURCH,74,NA,NA,212800,49500,262300,NA,211,NA,RD,NA,NA,Gore,frederick,22637,39.265434,-78.327228,0.90844,39572,1,2425,0.9079970135891979,211 RD GORE FREDERICK 22637,0.061280703527746894
45285124-7e18-48c8-ae21-6084aba55717,51137,Orange County,Non-Metro,Rappahannock-Rapidan,ORANGE CONGREGATION OF JEHOVAHS,NA,RELIGIOUS,NA,469200,38600,507800,NA,NA,NA,NA,NA,NA,ORANGE,orange,22960,38.242225,-78.046581,1.79534,78207,1,4406,1.7938663561495698,ORANGE ORANGE 22960,0.05633766798368432
eb075f8e-2859-4182-8356-0c5ff2cbdd71,51177,Spotsylvania County,"Washington-Arlington-Alexandria, DC-VA-MD-WV",George Washington,SYLVANIA HEIGHTS BAPTIST CHURCH,NA,NA,NA,0,95000,95000,NA,NA,NA,NA,NA,NA,FREDERICKSBURG,spotsylvania,22408,38.273680,-77.444125,0.14062,6126,1,1131,0.1405788498870862,FREDERICKSBURG SPOTSYLVANIA 22408,0.18462291870714986
026ebba3-4fba-43a2-9fb2-57c8f23d54f1,51143,Pittsylvania County,"Danville, VA",West Piedmont,NEW TESTAMENT BAPTIST CHURCH,NA,0204 CHURCH,NA,931880,97300,1029180,NA,691,NA,LN,NA,NA,DANVILLE,pittsylvania,24540-1391,36.636015,-79.407305,4.27113,186054,2,13412,4.272510611704977,691 LN DANVILLE PITTSYLVANIA 24540-1391,0.0720865985144098
eea1720f-78ae-4618-8cfe-5134ec30c79b,51173,Smyth County,Non-Metro,Mount Rogers,CEDAR BLUFF BAPTIST CHURCH,NA,NA,NA,1332500,38000,1370500,NA,NA,NA,NA,NA,NA,Atkins,smyth,24311,36.873470,-81.396948,0.05733,2497,0,NA,0.05737608964475282,ATKINS SMYTH 24311,NA
09e8f880-df06-4f10-bfbb-253d5b03a4ac,51083,Halifax County,Non-Metro,Southside,ST. MICHAEL A.M.E. METHODIST,NA,NA,NA,77024,9100,86124,NA,1025,NA,DRIVE,NA,NA,Riverdale,halifax,24592,36.684490,-78.903991,0.58976,25691,1,2395,0.5897363456991529,1025 DRIVE RIVERDALE HALIFAX 24592,0.09322330777315013
b28126ab-8022-4ea7-8e1f-a340cc186a97,51750,Radford City,"Blacksburg-Christiansburg, VA",New River Valley,RADFORD CONGREGATIONAL HOLINESS CHURCH,NA,NA,NA,NA,NA,NA,NA,212,NA,STREET,NA,NA,RADFORD,radford,24141,37.119782,-80.588271,0.05478,2386,1,1354,0.0548186635008691,212 STREET RADFORD RADFORD 24141,0.567476948868399
4d57f249-67ea-4100-93cf-e215c9a1edb7,51167,Russell County,Non-Metro,Cumberland Plateau,CHURCH OF THE LIVING GOD,7,NA,NA,2000,8500,10500,NA,NA,NA,NA,NA,NA,Honaker,russell,24260,37.013096,-81.970224,0.3343,14562,1,873,0.3345147170405458,HONAKER RUSSELL 24260,0.05995055624227441
5f61d3d3-e6b0-4ffa-90a0-8545e5e59b94,51073,Gloucester County,"Virginia Beach-Norfolk-Newport News, VA-NC",Hampton Roads,CALVARY BAPTIST CHURCH TRUSTEE,76CC,Religious - Vac Com Prime,NA,0,2840,2840,NA,NA,NA,NA,NA,NA,HAYES,gloucester,23072,37.330614,-76.515131,0.1406,6125,0,NA,0.14065545828628717,HAYES GLOUCESTER 23072,NA
33c994dd-8ac4-496f-ad0a-6ec267294ab7,51085,Hanover County,"Richmond, VA",PlanRVA,"ST PAUL'S EPISCOPAL CHURCH, TRUSTEES OF",NA,NA,NA,0,17700,NA,NA,NA,NA,NA,NA,NA,Hanover,hanover,23069,37.765640,-77.372124,1.96065,85408,0,NA,1.9601510478794781,HANOVER HANOVER 23069,NA
f00fe91a-c6c8-4faf-8eb7-4ec7b7c90bc0,51103,Lancaster County,Non-Metro,Northern Neck,CHURCH OF GOD IN CHRIST,NA,NA,NA,0,21000,21000,NA,NA,NA,NA,NA,NA,NA,lancaster,22503,37.792510,-76.495700,5.33695,232482,0,0,5.3390535261677945,LANCASTER 22503,0
d02695c2-dd0b-4572-ad20-efd1e649ce43,51051,Dickenson County,Non-Metro,Cumberland Plateau,LICK CREEK PRIMITIVE BAPTIST CHURCH,7,NA,NA,NA,NA,NA,NA,5715,NA,RD,NA,NA,CLINCHCO,dickenson,24226,37.127944,-82.311700,0.83161,36226,2,1951,0.8320161516643944,5715 RD CLINCHCO DICKENSON 24226,0.05385634627063435
6b8904f7-ccf7-4503-9bf7-106818d6f4ed,51133,Northumberland County,Non-Metro,Northern Neck,SMITHLAND BAPTIST CHURCH,76,NA,NA,0,21100,21100,NA,NA,NA,NA,NA,NA,NA,northumberland,22473,37.931196,-76.446179,8.77127,382085,1,887,8.774992573594258,NORTHUMBERLAND 22473,0.0023214729706740648
3f4f4d1e-1207-4297-a4e2-1d4fa9e5649e,51610,Falls Church City,"Washington-Arlington-Alexandria, DC-VA-MD-WV",Northern Virginia,BAPTIST WORLD ALLIANCE INC,NA,NA,NA,2648900,659600,3308500,NA,405,N,ST,NA,NA,FALLS CHURCH,falls-church,22046-3460,38.886054,-77.166539,1.24592,54273,2,9640,1.2458562417432815,405 N ST FALLS CHURCH FALLS-CHURCH 22046-3460,0.1776205479704457
a2c84ad3-699f-4f43-bd65-e69e4a68d6dd,51121,Montgomery County,"Blacksburg-Christiansburg, VA",New River Valley,REDEEMER CHURCH ARP,NA,Exempt/Religious,NA,826700,84000,910700,NA,560,NA,RD,NA,NA,CHRISTIANSBURG,montgomery,24073-4056,37.176222,-80.411509,2.06691,90036,2,6323,2.0684684747246416,560 RD CHRISTIANSBURG MONTGOMERY 24073-4056,0.07022746456972767
d304f32a-30eb-4f2d-bb8d-27d5b150a705,51810,Virginia Beach City,"Virginia Beach-Norfolk-Newport News, VA-NC",Hampton Roads,GREAT NECK BAPTIST CHURCH,SUNDSCHL,Church w/ Sunday School,NA,6049400,1036900,7086300,NA,1020,NA,DR,NA,NA,VIRGINIA BEACH,virginia-beach,23454-1948,36.865585,-76.048414,4.61,200816,4,34750,4.61280092257595,1020 DR VIRGINIA BEACH VIRGINIA-BEACH 23454-1948,0.173043980559318
0d976978-86ed-435c-8c4b-ff9bdc9efb0a,51195,Wise County,"Big Stone Gap, VA",Lenowisco,EAST STONE GAP METHODIST CHURCH,7,NA,NA,1427500,30000,1457500,NA,NA,NA,NA,NA,NA,NA,wise,24246,36.866409,-82.741979,0.11391,4964,0,0,0.11398499199118244,WISE 24246,0
1a67d392-cb0a-45a7-98c0-2412903c073b,51141,Patrick County,Non-Metro,West Piedmont,TATUM MACEDONIA CHURCH,76,NA,NA,120600,15300,135900,NA,NA,NA,NA,NA,NA,PATRICK SPRINGS,patrick,24171,36.620203,-80.192205,1.75843,76599,1,2420,1.7596464263316345,PATRICK SPRINGS PATRICK 24171,0.031593101737620595
0b7fd8da-4cc1-4695-81ca-65c85a8349c0,51169,Scott County,"Kingsport-Bristol, TN-VA",Lenowisco,RELIGION; ROLLERS CHAPEL CHURCH,NA,NA,NA,287400,15000,302400,NA,220,NA,NA,NA,NA,DUFFIELD,scott,24244,36.691749,-82.868300,0.15614,6802,1,2591,0.15616372302210596,220 DUFFIELD SCOTT 24244,0.38091737724198765
d4ea7c8c-afde-4c0a-9dd4-f471794c7fdc,51700,Newport News City,"Virginia Beach-Norfolk-Newport News, VA-NC",Hampton Roads,UNION BAPTIST,16,CHURCH/SYNAGOGUE/OTHER PLACES OF WORSHIP,NA,166900,47600,214500,NA,361,NA,AVE,NA,NA,NEWPORT NEWS,newport-news,23607-4934,36.993784,-76.398410,0.20815,9067,1,5588,0.20824143271950504,361 AVE NEWPORT NEWS NEWPORT-NEWS 23607-4934,0.6163008712914967
ce60ecab-497c-4e84-8b11-019294309c75,51187,Warren County,"Washington-Arlington-Alexandria, DC-VA-MD-WV",Northern Shenandoah,METHODIST CHURCH BENNETTS CHAPEL,NA,Exempt - Religious,NA,493100,69000,562100,NA,839,NA,DR,NA,NA,FRONT ROYAL,warren,22630-8444,38.905371,-78.266788,0.87615,38166,2,5382,0.8756544571285679,839 DR FRONT ROYAL WARREN 22630-8444,0.14101556359063042
19314736-97ef-4d71-a5a6-2ca47b049213,51025,Brunswick County,Non-Metro,Southside,PRESBYTERIAN CHURCH,76,NA,NA,31300,10000,41300,NA,2460,NA,RD,NA,NA,BRODNAX,brunswick,23920,36.757611,-77.925320,1.39171,60624,1,2374,1.3905154764356717,2460 RD BRODNAX BRUNSWICK 23920,0.03915940881499076
b01b269b-e5d0-442b-871c-743d94c8d3fc,51036,Charles City County,"Richmond, VA",PlanRVA,LITTLE ELAM BAPTIST CHURCH,NA,/EXEMPT RELIGIOUS,NA,18900,3200,22100,NA,NA,NA,NA,NA,NA,NA,charles-city,23030,37.379877,-77.114274,0.74687,32534,0,NA,0.7468417437168033,CHARLES-CITY 23030,NA
f46a640f-49c4-486e-8656-5eff69673e58,51105,Lee County,Non-Metro,Lenowisco,POWELL RIVER BAPTIST ASSOC TRUSTEE,76,NA,NA,107500,65900,173400,NA,NA,NA,NA,NA,NA,NA,lee,24263,36.670994,-83.180953,0.05756,2507,0,0,0.05755643010451145,LEE 24263,0
217793bb-7aa9-46fc-9f22-08d96dc5f438,51069,Frederick County,"Winchester, VA-WV",Northern Shenandoah,WOODBINE ASSEMBLY OF GOD CHURCH INC,74,NA,NA,822500,296000,1118500,NA,626,NA,RD,NA,NA,CLEAR BROOK,frederick,22624,39.286494,-78.118985,11.75379,512006,7,10851,11.745588966615294,626 RD CLEAR BROOK FREDERICK 22624,0.021193111018230255
58541619-4992-4bd8-9120-c5e3d3121559,51187,Warren County,"Washington-Arlington-Alexandria, DC-VA-MD-WV",Northern Shenandoah,CHURCH ST PAUL'S BAPTIST,NA,Exempt - Religious,NA,120200,35000,155200,NA,620,NA,RD,NA,NA,FRONT ROYAL,warren,22630-6339,38.927214,-78.144140,0.64194,27963,1,2182,0.6414941918025997,620 RD FRONT ROYAL WARREN 22630-6339,0.0780316847262454
dbf405e3-21f2-4227-9d0f-3a38b3460050,51087,Henrico County,"Richmond, VA",PlanRVA,FROM THE HEART CHURCH MINISTRIES INC,309,Church & Synagogue,NA,2046600,237300,2283900,NA,3300,NA,ST,NA,NA,RICHMOND,henrico,23223-1253,37.577786,-77.376679,37.79878,1646549,2,17141,37.78881975707918,3300 ST RICHMOND HENRICO 23223-1253,0.010410258060950509
6eab1e4b-3b00-4dc0-84e7-31fdc0a42898,51800,Suffolk City,"Virginia Beach-Norfolk-Newport News, VA-NC",Hampton Roads,ST MARYS CH OF GOD IN CHRIST,760C,Church,NA,205000,20600,225600,NA,3637,NA,PKWY,NA,NA,SUFFOLK,suffolk,23435-1215,36.808322,-76.507680,1.34947,58784,1,4653,1.3499798389377704,3637 PKWY SUFFOLK SUFFOLK 23435-1215,0.07915419161676647
b4876a97-8d06-4182-b133-c12cb6f4e2f2,51109,Louisa County,Non-Metro,Thomas Jefferson,MACEDONIA CHURCH OF LOUISA,76,NA,NA,308300,41400,349700,NA,17,NA,RD,NA,NA,LOUISA,louisa,23093-3314,37.963854,-78.085144,3.55913,155039,2,7305,3.556309765634281,17 RD LOUISA LOUISA 23093-3314,0.047117176968375696
b2178eb4-1a25-449f-87ba-d4634e13f5d9,51041,Chesterfield County,"Richmond, VA",PlanRVA,FIRST BAPTIST CH MIDLOTHIAN TR,NA,NA,NA,0,65700,65700,NA,13820,NA,RD,NA,NA,Midlothian,chesterfield,23113,37.508154,-77.655770,0.39948,17402,0,NA,0.3992674942547639,13820 RD MIDLOTHIAN CHESTERFIELD 23113,NA
d3f43066-731a-4a9c-be65-09f74a13466d,51195,Wise County,"Big Stone Gap, VA",Lenowisco,DUNCAN GAP FREEWILL BAPTIST,7,NA,NA,0,1500,1500,NA,NA,NA,NA,NA,NA,NA,wise,24293,37.035417,-82.515840,0.50545,22027,0,0,0.50584619163917,WISE 24293,0
1f039ec0-bd7f-494d-9b0d-94b30b2d2b14,51153,Prince William County,"Washington-Arlington-Alexandria, DC-VA-MD-WV",Northern Virginia,ISLAMIC ASSOCIATION OF AFGHAN COMMUNITY INC,710,NA,NA,NA,NA,NA,NA,7217,NA,CT,NA,NA,MANASSAS,prince-william,20109-2434,38.800308,-77.523189,0.04045,1762,1,1553,0.040439797859102705,7217 CT MANASSAS PRINCE-WILLIAM 20109-2434,0.8813847900113507
60bf3187-d1db-40eb-8bbe-55b8dae90b70,51650,Hampton City,"Virginia Beach-Norfolk-Newport News, VA-NC",Hampton Roads,ROMAN CATHOLIC DIOCESE OF RICHMOND,671,Exempt: Class - Grounds,NA,0,192900,192900,NA,2114,NA,AVE,NA,NA,HAMPTON,hampton,23661-2810,37.002573,-76.383086,1.87538,81693,0,NA,1.8762234550695809,2114 AVE HAMPTON HAMPTON 23661-2810,NA
15ba2192-04cb-4af8-8c55-30dc921a78dd,51083,Halifax County,Non-Metro,Southside,MURPHEY'S GROVE BAPTIST CHURCH,NA,NA,NA,139106,13500,152606,NA,1205,NA,ROAD,NA,NA,HALIFAX,halifax,24558,36.814420,-78.964636,4.2979,187221,3,4170,4.297943928824128,1205 ROAD HALIFAX HALIFAX 24558,0.022273142435944686
d75b592a-324b-4893-913c-5998160cf9b5,51073,Gloucester County,"Virginia Beach-Norfolk-Newport News, VA-NC",Hampton Roads,SINGLETON METHODIST CHURCH,76CT,Religious - Vac Com Std,NA,11700,31880,43580,NA,NA,NA,NA,NA,NA,GLOUCESTER,gloucester,23061,37.391712,-76.451610,4.21378,183556,0,NA,4.215526971597616,GLOUCESTER GLOUCESTER 23061,NA
5ad9f48e-7086-47d1-9104-cda7b5433b16,51109,Louisa County,Non-Metro,Thomas Jefferson,PROVIDENCE PRESBYTERIAN CHURCH,76,NA,NA,347500,101400,448900,NA,NA,NA,NA,NA,NA,GUM SPRINGS,louisa,23065,37.784640,-77.904544,15.98711,696413,1,2290,15.974485726013743,GUM SPRINGS LOUISA 23065,0.0032882786507431655
d136ea85-12e3-4d38-89e1-726edf61c7ac,51173,Smyth County,Non-Metro,Mount Rogers,CEDAR BLUFF BAPTIST CHURCH,NA,NA,NA,0,5000,5000,NA,NA,NA,NA,NA,NA,Atkins,smyth,24311,36.873682,-81.396226,0.05702,2484,0,NA,0.05706969668607594,ATKINS SMYTH 24311,NA
bd979b22-9506-4626-82fc-72f5a70ba27d,51061,Fauquier County,"Washington-Arlington-Alexandria, DC-VA-MD-WV",Rappahannock-Rapidan,HERITAGE PRESBYTERIAN CHURCH TEES,E76,RELIGIOUS,NA,22500,115000,137500,NA,NA,NA,NA,NA,NA,NA,fauquier,20187,38.714479,-77.779852,0.99672,43418,0,0,0.9961045104151645,FAUQUIER 20187,0
e9f768d1-da34-43ae-92d5-64bd5ae881a3,51147,Prince Edward County,Non-Metro,Commonwealth Regional Council,JOHNS MEMORIAL EPISCOPAL CHURCH TRS,NA,UNDEVELOPED,NA,NA,NA,NA,NA,400,NA,NA,NA,NA,Farmville,prince-edward,23901,37.302374,-78.396750,0.18297,7971,0,NA,0.1828843543423858,400 FARMVILLE PRINCE-EDWARD 23901,NA
3d404d41-5127-41e9-808d-d75664f9988a,51680,Lynchburg City,"Lynchburg, VA",Central Virginia,WHITE ROCK BAPTIST CHURCH TRS,760,NA,NA,13900,10500,24400,NA,NA,NA,NA,NA,NA,LYNCHBURG,lynchburg,24504,37.404637,-79.135935,1.02814,44787,0,NA,1.028292465077257,LYNCHBURG LYNCHBURG 24504,NA
ece8fdcd-fcf2-4f1d-ae97-c47075f60b2f,51135,Nottoway County,Non-Metro,Commonwealth Regional Council,BLACKSTONE PRESBYTERIAN,NA,NA,NA,0,69000,69000,NA,301,NA,ST,NA,NA,BLACKSTONE,nottoway,23824-1601,37.076218,-78.002308,0.09347,4072,1,2858,0.09338219507174188,301 ST BLACKSTONE NOTTOWAY 23824-1601,0.7018664047151277
e3354398-c5fd-4052-81c8-6fb25417e089,51770,Roanoke City,"Roanoke, VA",Roanoke Valley-Alleghany,LOUDON AVENUE CHRISTIAN CHURCH,155,Religious,NA,0,7200,7200,NA,720,NA,AVE,NW,NA,ROANOKE CITY,roanoke-city,24016,37.277114,-79.952292,0.14917,6498,0,0,0.14925648985790782,720 AVE NW ROANOKE CITY ROANOKE-CITY 24016,0
90cb971d-6863-4477-8ba4-ae43c5110052,51199,York County,"Virginia Beach-Norfolk-Newport News, VA-NC",Hampton Roads,ZION METHODIST CHURCH,RELG,Religious,NA,2070900,99500,2170400,NA,2109,NA,RD,NA,NA,SEAFORD,york,23696-2471,37.195232,-76.433646,1.9272,83951,5,19484,1.9280155452091692,2109 RD SEAFORD YORK 23696-2471,0.2320877654822456
cadd2a8f-866f-4212-92d1-5a6abea6e8b8,51690,Martinsville City,"Martinsville, VA",West Piedmont,MOUNT SINAI APOSTOLIC CHURCH OF CHRIST IN GOD,NA,NA,NA,243500,8000,251500,NA,7,NA,ST,NA,NA,MARTINSVILLE,martinsville,24112-2528,36.690497,-79.882274,0.06422,2798,1,2518,0.0642585976924308,7 ST MARTINSVILLE MARTINSVILLE 24112-2528,0.899928520371694
f17779bd-a1d6-470f-adce-56faa209c831,51019,Bedford County,"Lynchburg, VA",Central Virginia,BEDFORD PRESBYTERIAN,NA,Exempt,NA,NA,NA,NA,NA,105,W,ST,NA,NA,BEDFORD,bedford,24523-1940,37.334203,-79.523985,0.41708,18168,1,9336,0.41724749333370886,105 W ST BEDFORD BEDFORD 24523-1940,0.5138705416116248
7616e09e-e6ef-42b4-af38-41150c50f3c3,51157,Rappahannock County,"Washington-Arlington-Alexandria, DC-VA-MD-WV",Rappahannock-Rapidan,FIVE FORKS CHURCH,76,NA,NA,77400,50000,127400,NA,686,NA,RD,NA,NA,WOODVILLE,rappahannock,22749-1816,38.650115,-78.168179,0.08119,3537,1,999,0.08113130517561713,686 RD WOODVILLE RAPPAHANNOCK 22749-1816,0.2824427480916031
201ceaf5-a3fb-48fc-8b55-9d8a706bd14a,51041,Chesterfield County,"Richmond, VA",PlanRVA,CENTRAL BAPTIST CHURCH,NA,NA,NA,0,116000,116000,NA,1600,NA,RD,NA,NA,RICHMOND,chesterfield,23236,37.468257,-77.598223,14.77301,643525,0,NA,14.765931255187953,1600 RD RICHMOND CHESTERFIELD 23236,NA
736d3232-ba39-4704-9fcb-971b56534bab,51155,Pulaski County,"Blacksburg-Christiansburg, VA",New River Valley,PATHWAY TO HEAVEN WORSHIP CENTER,79,NA,NA,200700,20000,220700,NA,NA,NA,NA,NA,NA,DUBLIN,pulaski,24084,37.195567,-80.731458,0.38281,16675,2,3951,0.3831159889651668,DUBLIN PULASKI 24084,0.2369415292353823
957412b1-a635-479e-95ed-cb9e3bec195b,51185,Tazewell County,"Bluefield, WV-VA",Cumberland Plateau,TRINITY ASSEMBLY OF GOD CHURCH,NA,Religious,NA,327100,25000,352100,NA,NA,NA,NA,NA,NA,Cedar Bluff,tazewell,24609,37.090281,-81.752737,0.29623,12904,0,0,0.29644143916080273,CEDAR BLUFF TAZEWELL 24609,0
954c54fb-6d7f-4425-9d8f-5360d8e6bd7c,51760,Richmond City,"Richmond, VA",PlanRVA,FIRST AFRICAN BAPTIST CHURCH TR,406,B Paved Surface Parking,NA,7000,80000,87000,NA,2701,NA,NA,NA,NA,RICHMOND,richmond-city,23222,37.567476,-77.436254,0.32328,14083,0,NA,0.3231816601589996,2701 RICHMOND RICHMOND-CITY 23222,NA
935cf478-e229-4d0e-8f77-156de688c6d1,51105,Lee County,Non-Metro,Lenowisco,DRYDEN BAPTIST CHURCH,76,NA,NA,242900,48500,225400,NA,NA,NA,NA,NA,NA,Dryden,lee,24243,36.775407,-82.943108,0.07199,3136,0,0,0.07199493151240735,DRYDEN LEE 24243,0
11eac634-5658-4b56-bca6-f4abd955456e,51087,Henrico County,"Richmond, VA",PlanRVA,FIRST MISSION BAPTIST CH,309,Church & Synagogue,NA,83000,30800,113800,NA,3365,NA,RD,NA,NA,RICHMOND,henrico,23223-2602,37.560519,-77.377714,0.37634,16394,1,1783,0.3762362521816608,3365 RD RICHMOND HENRICO 23223-2602,0.10875930218372576
e9fc7193-b1b9-425c-b6c9-063d3c2a38a6,51680,Lynchburg City,"Lynchburg, VA",Central Virginia,CHRIST CHAPEL BAPTIST CHURCH TRS,760,NA,NA,0,28200,28200,NA,NA,NA,NA,NA,NA,LYNCHBURG,lynchburg,24501,37.401751,-79.227908,4.25413,185314,2,379,4.2550480780692945,LYNCHBURG LYNCHBURG 24501,0.0020451773746182154
2da6790c-ae3c-45c5-af9a-3f3840519182,51061,Fauquier County,"Washington-Arlington-Alexandria, DC-VA-MD-WV",Rappahannock-Rapidan,COMMUNITY CHRISTIAN FELLOWSHIP OF WARRENTON,E76,RELIGIOUS,NA,1733800,386600,2120400,NA,6317,NA,RD,NA,NA,WARRENTON,fauquier,20187-2341,38.775000,-77.679562,8.32641,362706,3,13603,8.322138580250938,6317 RD WARRENTON FAUQUIER 20187-2341,0.03750420450723175
e5b8f296-5e30-46e2-9555-fed1dbf15297,51167,Russell County,Non-Metro,Cumberland Plateau,UNION BAPTIST CHURCH,7,NA,NA,223900,8000,231900,NA,NA,NA,NA,NA,NA,DANTE,russell,24237,36.975930,-82.299722,0.18613,8108,1,3417,0.18621872172076911,DANTE RUSSELL 24237,0.42143561914158856
4607bd88-6c78-4af6-91c7-c5e056716669,51145,Powhatan County,"Richmond, VA",PlanRVA,BETHEL BAPTIST CHURCH,76,NA,NA,554800,60000,614800,NA,2685,NA,RD,NA,NA,POWHATAN,powhatan,23139,37.435878,-77.831652,1.06473,46381,2,4679,1.0639637138048976,2685 RD POWHATAN POWHATAN 23139,0.10088182661003428
4094a987-325b-4a9c-9fe0-a46aa8e337fc,51700,Newport News City,"Virginia Beach-Norfolk-Newport News, VA-NC",Hampton Roads,GREATER REVIVAL TABERNACLE,16,CHURCH/SYNAGOGUE/OTHER PLACES OF WORSHIP,NA,107400,19200,126600,NA,1323,NA,ST,NA,NA,NEWPORT NEWS,newport-news,23607-4825,36.988967,-76.402792,0.10781,4696,1,3184,0.10785462901757759,1323 ST NEWPORT NEWS NEWPORT-NEWS 23607-4825,0.6780238500851788
741b8cd4-9bb4-4a88-8322-a364d8c25561,51173,Smyth County,Non-Metro,Mount Rogers,DAVIS MEMORIAL METHODIST CHURCH,NA,NA,NA,0,91800,91800,NA,NA,NA,NA,NA,NA,Atkins,smyth,24311,36.866902,-81.418299,3.86302,168277,1,2359,3.866062670032806,ATKINS SMYTH 24311,0.014018552743393333
a2b6c4df-3712-4ba2-a6f9-9b6fc6793934,51183,Sussex County,"Richmond, VA",Crater,WAKEFIELD BAPTIST PARSONAGE,7,NA,NA,138400,25200,163600,NA,114,NA,DR,NA,NA,Wakefield,sussex,23888,36.964276,-76.993870,0.44827,19527,1,2144,0.4482891582470728,114 DR WAKEFIELD SUSSEX 23888,0.109796691760127
07173524-5e6e-4b2f-925a-8f24e7d774ae,51620,Franklin City,"Virginia Beach-Norfolk-Newport News, VA-NC",Hampton Roads,EAST END APOSTOLIC FAITH CHURCH OF,76,NA,NA,674500,159700,834200,NA,410,NA,ST,NA,NA,FRANKLIN,franklin-city,23851-1406,36.680204,-76.921886,0.09784,4262,1,2860,0.097846951213714,410 ST FRANKLIN FRANKLIN-CITY 23851-1406,0.6710464570624121
5cea3845-b7b2-4d63-b6a0-512ad976f3fa,51187,Warren County,"Washington-Arlington-Alexandria, DC-VA-MD-WV",Northern Shenandoah,BAPTIST OF BROWNTOWN VA CHURCH BROWNTOWN MISSIONARY,NA,Exempt - Religious,NA,581100,50000,631100,NA,NA,NA,NA,NA,NA,BENTONVILLE,warren,22610,38.810923,-78.233201,0.62132,27065,3,5935,0.6209498125740501,BENTONVILLE WARREN 22610,0.21928690190282654
23626b29-f096-4349-b1fa-f3f6bfa04980,51161,Roanoke County,"Roanoke, VA",Roanoke Valley-Alleghany,SLATE HILL BAPTIST CHURCH TRUSTEES,NA,NA,NA,0,7000,10600,Commercial,NA,NA,RD,NA,NA,Roanoke,roanoke,24018,37.224327,-79.976511,0.28679,12493,0,NA,0.28696487801901993,RD ROANOKE ROANOKE 24018,NA
9a0909ba-d348-48f2-853f-247c39ae28aa,51111,Lunenburg County,Non-Metro,Commonwealth Regional Council,VICTORIA BAPTIST CHURCH,NA,NONGOVERNMENTAL - RELIGIOUS,NA,1174000,25000,1208200,NA,NA,NA,NA,NA,NA,Victoria,lunenburg,23974,36.994992,-78.226036,0.0708,3084,1,1367,0.07075218701098249,VICTORIA LUNENBURG 23974,0.44325551232166016
08dcdc99-f76d-44f1-b755-32e10146a361,51670,Hopewell City,"Richmond, VA",Crater,BIBLE BAPTIST CHURCH,CHURCH,75 EXEMPT: Religious,NA,107000,97200,204200,NA,3115,NA,BLVD,NA,NA,HOPEWELL,hopewell,23860-4802,37.279997,-77.307340,0.16045,6989,1,3772,0.16041723254245746,3115 BLVD HOPEWELL HOPEWELL 23860-4802,0.5397052511088853
4a8c7b4f-4b64-4f63-892a-3955664dfb70,51001,Accomack County,Non-Metro,Accomack-Northampton,PAINTER GARRISONS COMMUNITY CHURCH I,NA,NA,NA,0,45000,45000,NA,NA,NA,NA,NA,NA,Painter,accomack,23420,37.583291,-75.781206,0.3793,16523,0,NA,0.3795669498772083,PAINTER ACCOMACK 23420,NA
52270b22-a693-4dc5-875c-6fce21a915f2,51730,Petersburg City,"Richmond, VA",Crater,TRUSTEES OF & FOR THE BETHESDA CHURCH OF THE LORD JESUS,477,Church Yard,NA,0,4600,4600,NA,504,NA,ST,NA,NA,PETERSBURG,petersburg,23803,37.219506,-77.406049,0.10997,4791,0,0,0.1099415196275923,504 ST PETERSBURG PETERSBURG 23803,0
1a7f01e1-14a9-4052-a5dc-0b6965cccb09,51131,Northampton County,Non-Metro,Accomack-Northampton,"CHRIST EPISCOPAL, TRUSTEES",76,NA,NA,282100,68000,350100,NA,NA,NA,NA,NA,NA,Eastville,northampton,23310,37.356057,-75.945858,1.39596,60809,2,5618,1.3968690236904768,EASTVILLE NORTHAMPTON 23310,0.09238763998750185
e6d06815-e1a1-4da8-86c3-c5fa8e09525e,51197,Wythe County,Non-Metro,Mount Rogers,ST PAUL LUTHERAN CHURCH,760C,NA,NA,0,35000,500200,NA,NA,NA,NA,NA,NA,CROCKETT,wythe,24382,36.911660,-81.235111,8.34709,363607,1,4523,8.353866714174213,CROCKETT WYTHE 24382,0.012439254469798437
1d949153-c8e0-45f8-8488-1d9b1cc02029,51185,Tazewell County,"Bluefield, WV-VA",Cumberland Plateau,CLAYPOOL HILL BIBLE CHURCH,NA,Religious,NA,564400,128000,692400,NA,NA,NA,NA,NA,NA,Claypool Hill,tazewell,24609,37.052629,-81.771461,0.53621,23358,0,0,0.5365850871474052,CLAYPOOL HILL TAZEWELL 24609,0
e7cd01be-23b6-45ef-9840-28d9faf82075,51181,Surry County,Non-Metro,Hampton Roads,TRUSTEES COMMUNITY BAPTIST CHURCH,76,NA,NA,1246100,181300,1427400,NA,270,NA,RD,NA,NA,ELBERON,surry,23846-2024,37.129651,-76.833683,14.77832,643757,2,9374,14.780805396845485,270 RD ELBERON SURRY 23846-2024,0.014561395060558565
5a67f6d9-0632-4a6b-a12b-e11fddffb9a3,51127,New Kent County,"Richmond, VA",PlanRVA,ST PETERS EPISCOPAL CHURCH,NA,NA,NA,493600,120500,614100,NA,0,NA,LN,NA,NA,NEW KENT,new-kent,23124,37.540914,-77.056297,1.00038,43577,0,0,1.0003866163630644,0 LN NEW KENT NEW-KENT 23124,0
27db5831-8985-4576-b862-e3336a2d8f79,51650,Hampton City,"Virginia Beach-Norfolk-Newport News, VA-NC",Hampton Roads,THE NEW COVENANT CHURCH,666,Exempt: Class - Sanct & Class,NA,1964500,681800,2646300,NA,1079,NA,RD,NA,NA,HAMPTON,hampton,23666-1946,37.055083,-76.429538,7.46145,325028,5,43509,7.464613305686777,1079 RD HAMPTON HAMPTON 23666-1946,0.13386231340069163
83981c5c-357e-4182-9dbb-6b7181114abd,51670,Hopewell City,"Richmond, VA",Crater,ST ELPIS GREEK CHURCH OF,NA,75 EXEMPT: Religious,NA,8000,27700,35700,NA,126,N,AVE,NA,NA,HOPEWELL,hopewell,23860,37.302195,-77.293866,0.16431,7158,0,0,0.16428005975417345,126 N AVE HOPEWELL HOPEWELL 23860,0
9be970e4-1e97-4c84-980c-df7e31aca40f,51117,Mecklenburg County,Non-Metro,Southside,SOUTH HILL METHODIST CHUR,04,NA,NA,NA,30000,49400,NA,201,N,AVE,NA,NA,SOUTH HILL,mecklenburg,23970-2047,36.727879,-78.128484,0.14436,6288,1,1673,0.14424520614108075,201 N AVE SOUTH HILL MECKLENBURG 23970-2047,0.2660623409669211
2988ac97-2db9-4336-ae0e-62420debf24f,51195,Wise County,"Big Stone Gap, VA",Lenowisco,EAST STONE GAP BAPTIST CHURCH,7,NA,NA,96400,14000,110400,NA,3913,NA,AVE,NA,NA,EAST STONE GAP,wise,24246,36.866423,-82.742805,0.10524,4586,1,457,0.10530710763216942,3913 AVE EAST STONE GAP WISE 24246,0.09965111208024423
